STATION,STNAME,SHORTNAME,GAUGE,DATUM,CATCHAREA,ZONE,EASTING,NORTHING,GRDATUM,LATITUDE,LONGITUDE,LLDATUM,POSACC,ELEV,ELEVACC,FIELD,LAB,ACTIVE,COMMENCED,CEASED,REGION
221001,GENOA RIVER @ ROCKTON,GENOA R @ ROCKTON,414.71600000000001,AHD,125.59999999999999,55,705825,5887218,UTM,-37.138654989999999,149.31729609999999,WGS84,9,429,1,Y,Y,1,1993-05-26,,221
221201,CANN RIVER (WEST BRANCH) @ WEERAGUA,CANN (WB) @ WEERAGUA,153.95599999999999,AHD,311,55,694682,5861473,UTM,-37.372935589999997,149.19866060000001,WGS84,9,169,1,Y,Y,1,1922-04-22,,221
221207,ERRINUNDRA RIVER @ ERRINUNDRA,ERRINUNDRA @ ERRINUN,0,GAU,162,55,669418,5853798,UTM,-37.447037190000003,148.91525559999999,WGS84,9,168,1,n,n,1,1968-02-20,,221
221208,WINGAN RIVER @ WINGAN INLET NATIONAL PARK,WINGAN @WINGAN INLET,0,ARB,420,55,719710.30000000005,5825779.5,UTM,-37.688768000000003,149.49176727,WGS84,9,50,1,Y,Y,1,1979-06-22,,221
221209,CANN RIVER (EAST BRANCH) @ WEERAGUA,CANN (EBR) WEERAGUA,0,,154,55,695470,5863398,UTM,-37.355431109999998,149.2070458,WGS84,9,202,1,Y,N,1,1972-10-23,,221
221210,GENOA RIVER @ THE GORGE,GENOA @ GORGE,0,,837,55,723046,5856007,UTM,-37.415770780000003,149.52037569999999,WGS84,9,102,1,Y,Y,1,1972-08-22,,221
221211,COMBIENBAR RIVER @ COMBIENBAR,COMBIENBAR @ COMB.,0,GAU,179,55,675439,5854433,UTM,-37.440194490000003,148.98313479999999,WGS84,9,189,1,Y,Y,1,1974-08-12,,221
221212,BEMM RIVER @ PRINCES HIGHWAY,BEMM @ PRINCES HWY,0,,725,55,667855,5836059,UTM,-37.607126190000002,148.90164870000001,WGS84,9,82,1,Y,Y,1,1975-04-30,,221
221218,BETKA RIVER @ MINERS TRACK,BETKA R @ MINERS TRK,0,ARB,0,55,732688,5835801,UTM,-37.595335239999997,149.63561819,WGS84,1,0,1,N,N,1,1996-01-16,,221
221224,CANN RIVER U/S CANN RIVER OFFTAKE,CANN RV U/S O/TAKE,0,,0,55,690544,5843171,UTM,-37.538646839999998,149.156689,WGS84,,0,,y,N,1,2009-03-11,,221
221225,BEMM RIVER U/S OF PUMPHOUSE,BEMM R U/S PUMPHOUSE,0,,0,55,671929,5822377,UTM,-37.729623050000001,148.95100429999999,WGS84,,0,,N,N,1,2009-09-23,,221
221800,RAINGAUGE (GENOA RIVER) @ THE GORGE,RG @ THE GORGE,0,ARB,0,55,722715,5855916.4000000004,,-37.416666669999998,149.5166667,,1,0,1,N,N,1,1972-08-22,1992-10-01 00:00:00.000,221
222200,SNOWY RIVER @ JARRAHMOND,SNOWY R @ JARRAHMOND,0,AHD,13421,55,620071,5830901,UTM,-37.661086070000003,148.3613139,WGS84,9,27,1,Y,Y,1,1889-04-01,,222
222201,SNOWY RIVER @ ORBOST,SNOWY R @ ORBOST,-0.14099999999999999,AHD,13572,55,627898,5825644.4000000004,UTM,-37.707393070000002,148.45095033000001,WGS84,9,7,1,Y,Y,1,1907-04-13,,222
222202,BRODRIBB RIVER @ SARDINE CREEK,BRODRIBB @ SARDINE,78.590999999999994,AHD,658,55,636752,5847240,UTM,-37.511534490000003,148.54732540000001,WGS84,9,103,1,Y,N,1,1922-04-24,,222
222203,SNOWY RIVER @ MARLO JETTY,SNOWY @ MARLO JETTY,-0.745,AHD,0,55,634504.80000000005,5815384.5,,-37.798888890000001,148.5277778,,1,0,1,N,N,1,1934-06-25,,222
222205,SNOWY RIVER @ NEWMERELLA-LOCHEND ROAD,SNOWY @ NEWMERELLA,-0.47899999999999998,ARB,13600,55,633887.77500000002,5820634.9510000004,MGA94,-37.751804,148.519811,GDA94,1,0,1,N,N,1,1960-03-01,,222
222206,BUCHAN RIVER @ BUCHAN,BUCHAN @ BUCHAN,74.849999999999994,AHD,822,55,603711,5849459,UTM,-37.495843239999999,148.17324239999999,WGS84,9,90,9,Y,Y,1,1926-03-27,,222
222209,SNOWY RIVER @ MCKILLOP BRIDGE,SNOWY @ MCKILLOP BR.,0,ARB,10619,55,625612,5894902,UTM,-37.083627559999996,148.41325509999999,WGS84,9,174,9,Y,Y,1,1941-03-01,,222
222210,DEDDICK RIVER @ DEDDICK (CASEYS),DEDDICK @ DEDDICK,0,ARB,857,55,626577.69999999995,5894693.7000000002,UTM,-37.085374700000003,148.42415223,WGS84,9,0,1,Y,N,1,1964-03-26,,222
222213,SUGGAN BUGGAN RIVER @ SUGGAN BUGGAN,S.BUGGAN @ SUGGAN,0,ARB,357,55,618048,5909278,UTM,-36.955055360000003,148.32592080000001,WGS84,9,0,1,Y,N,1,1957-07-24,,222
222217,RODGER RIVER @ JACKSONS CROSSING,RODGER @ JACKSONS,0,ARB,447,55,620346,5858744,UTM,-37.410156039999997,148.3598666,WGS84,9,0,1,Y,Y,1,1976-06-03,,222
222219,SNOWY RIVER @ D/S OF BASIN CREEK,SNOWY @ BASIN CRK,0,ARB,11964,55,612580,5848984,UTM,-37.49908473,148.27362479999999,WGS84,9,0,1,Y,Y,1,1978-12-12,,222
222221,BUCHAN RIVER @ EGW OFFTAKE,BUCHAN R @ EGW O/T,0,,0,55,603874,5852271,UTM,-37.470483850000001,148.17468909999999,WGS84,,0,,y,N,1,2009-05-14,,222
222222,ROCKY RIVER U/S OT THE WEIR,ROCKY RIVER U/S OT T,0,,0,55,645938,5834053,UTM,-37.628939219999999,148.65385079999999,WGS84,,0,,y,N,1,2009-03-11,,222
223202,TAMBO RIVER @ SWIFTS CREEK,TAMBO @ SWIFTS CREEK,280.863,AHD,943,55,564619,5875047,UTM,-37.268781199999999,147.72881855,WGS84,9,305,1,Y,Y,1,1937-06-01,,223
223204,NICHOLSON RIVER @ DEPTFORD,NICHOLSON @ DEPTFORD,0,ARB,287,55,561543,5839104,UTM,-37.592946310000002,147.697124,WGS84,9,0,1,Y,Y,1,1961-05-12,,223
223205,TAMBO RIVER @ D/S OF RAMROD CREEK,TAMBO @ DS RAMROD,15.452,AHD,2681,55,576710,5830147,UTM,-37.672530620000003,147.86985129999999,WGS84,9,0,1,Y,N,1,1965-06-09,,223
223209,TAMBO RIVER @ BATTENS LANDING,TAMBO @ BATTENS,0,ARB,2781,55,574796.09999999998,5820757.9000000004,UTM,-37.757306200000002,147.84911607000001,WGS84,9,0,1,Y,N,1,1977-01-26,,223
223210,NICHOLSON RIVER @ SARSFIELD,NICHOLSON @ SARSFIEL,0,ARB,471,55,562646,5823050,UTM,-37.737561550000002,147.71099620000001,WGS84,9,42,1,Y,Y,1,1977-09-21,,223
223212,TIMBARRA RIVER @ D/S OF WILKINSON CREEK,TIMBARRA DS WILKINSO,0,ARB,438,55,594066,5855069,UTM,-37.446318429999998,148.06343369999999,WGS84,9,200,1,Y,N,1,1982-05-06,,223
223214,TAMBO RIVER @ U/S OF SMITH CREEK,TAMBO @ U/S SMITH CK,0,ARB,32,55,582588,5909736,UTM,-36.954706559999998,147.92764,WGS84,9,950,1,Y,Y,1,1989-03-02,,223
223215,HAUNTED STREAM @ HELLS GATE,HAUNTED @ HELLS,153.892,AHD,180,55,573015,5851389,UTM,-37.481387050000002,147.82583885,WGS84,9,169,1,Y,N,1,1990-02-08,,223
223217,NICHOLSON RIVER @ PUMP HOUSE,NICHOLSON R @ PUMP H,0,AHD,0,55,564088,5821594,UTM,-37.750583949999999,147.7274893,GDA94,,0,,y,N,1,2011-01-20,,223
223802,RAINGAUGE @ MOUNT ELIZABETH SOMMERVILLE TRACK,RG MT ELIZABETH TRK,,,,55,580733,5851999,UTM,-37.475247029999998,147.91305700000001,GDA94,,0,,N,N,1,2011-01-19,,223
224200,MITCHELL RIVER @ BAIRNSDALE,MITCHELL @ BAIRNS,0,ARB,4425,55,552241,5813267,UTM,-37.82638609,147.59361654,WGS84,9,0,1,Y,N,1,1889-04-01,,224
224201,WONNANGATTA RIVER @ WATERFORD,WATERFORD,175.33699999999999,AHD,1979,55,514714,5850745,UTM,-37.489960859999997,147.1664437,WGS84,9,183,9,n,N,1,1922-03-24,,224
224203,MITCHELL RIVER @ GLENALADALE,MITCHELL GLENALADALE,28.951000000000001,AHD,3903,55,533010,5820334,UTM,-37.76358991,147.37477759999999,WGS84,9,0,1,Y,Y,1,1937-08-07,,224
224206,WONNANGATTA RIVER @ CROOKED RIVER,WONNANGATTA @CROOKED,240.82900000000001,AHD,1096,55,507891,5859903,UTM,-37.407496899999998,147.08916452,WGS84,9,0,1,Y,Y,1,1953-05-07,,224
224213,DARGO RIVER @ LOWER DARGO ROAD,DARGO @ L DARGO RD,172.82400000000001,AHD,676,55,523752,5850152,UTM,-37.495117620000002,147.26869919999999,WGS84,9,0,1,Y,Y,1,1973-05-24,,224
224214,WENTWORTH RIVER @ TABBERABBERA,WENTWORTH @TABBERA'A,0,ARB,443,55,534808,5850099,UTM,-37.495244659999997,147.3937727,WGS84,9,0,1,Y,N,1,1974-07-04,,224
224217,MITCHELL RIVER @ ROSEHILL,MITCHELL @ ROSEHILL,0,ARB,4413,55,550366,5814542,UTM,-37.815000359999999,147.57222311999999,WGS84,9,27,1,Y,Y,1,1976-10-29,,224
224220,RAIN GAUGE (BOGGY CREEK) @ BULLUMWAAL,RG @ BULLUMWAAL,178.88499999999999,AHD,83,55,548565.5,5830013.2999999998,UTM,-37.675657579999999,147.55073372999999,WGS84,9,0,1,n,N,1,1991-02-26,,224
224222,MITCHELL RIVER U/S GLENALADALE PUMPHOUSE,MITCHELL R GLENA. PS,0,ARB,0,55,532443,5823351,UTM,-37.736550000000001,147.3682,WGS84,,0,,y,N,1,2009-12-18,,224
225114,THOMSON RIVER @ D/S WHITELAWS CREEK,THOMSON R WHITELAWS,0,,155.30000000000001,55,436711,5825795,UTM,-37.712777770000002,146.2819456,WGS84,9,0,1,N,Y,1,1987-03-27,,225
225201,AVON RIVER @ STRATFORD,AVON @ STRATFORD,6.4790000000000001,AHD,1485,55,506676,5797653,UTM,-37.968586799999997,147.0760061,WGS84,9,12,9,Y,Y,1,1976-11-01,,225
225209,MACALISTER RIVER @ LICOLA,MACALISTER @ LICOLA,2,AHD,1233,55,466762,5835198,UTM,-37.629610370000002,146.62331230000001,WGS84,9,0,1,Y,Y,1,1952-08-01,,225
225210,THOMSON RIVER @ THE NARROWS,THOMSON @ NARROWS,247.08000000000001,AHD,518,55,447491.26299999998,5806094.8940000003,UTM,-37.891010000000001,146.40281999999999,WGS84,9,0,1,N,Y,1,1953-06-11,,225
225212,THOMSON RIVER @ WANDOCKA,THOMSON @ WANDOCKA,19.422999999999998,AHD,1417,55,489554,5792978,UTM,-38.010686380000003,146.88100460000001,WGS84,9,0,1,Y,Y,1,1963-03-29,,225
225213,ABERFELDY RIVER @ BEARDMORE,ABERFELDY @BEARDMORE,305.55200000000002,AHD,311,55,450135,5810238,UTM,-37.853818449999999,146.43317189999999,WGS84,9,336,1,Y,Y,1,1963-06-27,,225
225218,FREESTONE CREEK @ BRIAGALONG,FREESTONE CREEK,63.238,AHD,309,55,508366.40000000002,5815232.7999999998,,-37.810125599999999,147.0950473,,,78,1,Y,Y,1,1967-04-12,,225
225219,MACALISTER RIVER @ GLENCAIRN,MACALISTER @ GLEN,293.54000000000002,AHD,570,55,461689,5847757,UTM,-37.51621523,146.5664779,WGS84,9,0,1,Y,N,1,1967-04-07,,225
225223,VALENCIA CREEK @ GILLIO ROAD,VALENCIA @ GILLIO RD,85.480999999999995,AHD,195,55,499321,5822633,UTM,-37.74346413,146.99229310000001,WGS84,9,99,1,Y,Y,1,1971-09-06,,225
225224,AVON RIVER @ THE CHANNEL,AVON @ CHANNEL,72,AHD,554,55,489868,5816150,UTM,-37.801840849999998,146.88490730000001,WGS84,9,96,1,Y,Y,1,1972-07-12,,225
225231,THOMSON RIVER @ U/S OF COWWARR WEIR,THOM. @U/S COWWARR W,69.400000000000006,AHD,1080,55,467065,5796878,UTM,-37.974998640000003,146.62500398,WGS84,9,0,1,Y,Y,1,1976-04-01,,225
225232,THOMSON RIVER @ BUNDALAGUAH,THOMSON @ BUNDALAGUA,5.0940000000000003,AHD,3538,55,499308,5789148,UTM,-38.045265440000001,146.99211339999999,WGS84,9,20,9,Y,Y,1,1976-11-03,,225
225234,AVON RIVER @ CLYDEBANK (CHINN'S BRIDGE),AVON R @ CHINN'S BR,-0.20999999999999999,ARB,1584,55,515238,5791515,UTM,-38.023804200000001,147.1736143,WGS84,9,5,9,Y,Y,1,1977-05-05,,225
225247,MACALISTER RIVER @ RIVERSLEA,MACALISTER RIVERSLEA,0,GAU,0,55,498044.5,5791335.7000000002,MGA94,-38.025678249999999,146.97771933999999,GDA94,1,19,1,Y,Y,1,1996-12-16,,225
225801,RAIN GAUGE (MACALISTER RIVER) @ MURDERERS HILL,RG @ MURDERERS HILL,0,,0,55,460964,5810725,UTM,-37.84995739,146.5562903,WGS84,9,738,1,Y,N,1,1970-06-08,,225
225802,RAIN GAUGE (MACALISTER RIVER) @ MOUNT TAMBORITHA,RG @ MT. TAMBORITHA,0,,0,55,472550,5853466,UTM,-37.465144219999999,146.68959050000001,WGS84,9,1380,1,Y,N,1,1986-04-01,,225
225809,RAIN GAUGE (AVON RIVER) @ MOUNT WELLINGTON,RG @ MT WELLINGTON,0,,0,55,487412,5850069,UTM,-37.4960855,146.85759379999999,WGS84,9,1544,1,Y,N,1,1997-05-21,,225
225810,RAIN GAUGE (AVON RIVER) @ REEVE KNOB,RG @ REEVE KNOB,0,,0,55,500533.20000000001,5846182,UTM,-37.531207090000002,147.00603484000001,WGS84,9,1265,1,Y,N,1,1997-05-21,,225
225819,RAINGAUGE @ MT USEFUL,R.G. @ MT USEFUL,0,,0,55,456353,5827872,UTM,-37.695204400000001,146.5049119,WGS84,9,0,0,n,N,1,2002-05-27,,225
225823,RAINGAUGE @ BLANKET HILL,R.G. BLANKET HILL,,,,55,472533.59999999998,5811892.0999999996,UTM,-37.839860000000002,146.68783999999999,GDA94,,0,,N,N,1,2010-07-26,,225
225824,RAINGAUGE (MACALISTER RV) @ SNOWY RANGE,RG AT SNOWY RANGE,,,,55,475045,5873295,AMG66,-37.286481999999999,146.71847289999999,AGD66,9,1638,1,N,N,1,2011-02-22,,225
225825,RAINGAUGE (MACALISTER RV) @ HIGH RIDGE,RG AT HIGH RIDGE,,,,55,464837.10320919298,5880051.1019587573,UTM,-37.225254,146.603635,AGD66,9,1587,1,N,N,1,2011-04-06,,225
225826,RAINGAUGE (MACALISTER RV) @ MOUNT SUNDAY,RG AT MT SUNDAY,,,,55,448995,5867264,MGA94,-37.339908029999997,146.42418520000001,GDA94,,0,,N,N,1,2011-04-06,,225
226005,LATROBE RIVER @ THOMS BRIDGE,LATROBE @ THOMS,0,ARB,2657,55,448290.41899999999,5775501.7230000002,UTM,-38.166772000000002,146.40969999999999,WGS84,9,0,1,Y,N,1,1960-05-24,,226
226007,TYERS RIVER @ BROWNS,TYERS @ BROWNS,169.35900000000001,AHD,207,55,443476,5788600,UTM,-38.048439510000001,146.3557807,WGS84,9,0,1,Y,Y,1,1961-08-17,,226
226008,TYERS RIVER WEST BRANCH @ MORGANS MILL,TYERS @ MORGANS MILL,0,,80,55,439256,5800120,UTM,-37.944345390000002,146.30866259999999,WGS84,9,0,1,Y,Y,1,1960-04-27,,226
226017,JACOBS CREEK @ O'TOOLES,JACOBS @ O'TOOLES,0,,36,55,446350,5788246,UTM,-38.051804799999999,146.38850819999999,WGS84,9,0,1,Y,Y,1,1962-04-16,,226
226021,NARRACAN CREEK @ MOE,NARRACAN CK @ MOE,0,ARB,0,55,435969,5775832,UTM,-38.163004389999998,146.2690819,WGS84,9,0,1,Y,N,1,1996-06-26,,226
226023,TRARALGON CREEK @ TRARALGON,TRARALGON CK,32.673000000000002,AHD,189,55,460064,5772541,UTM,-38.194053590000003,146.54393260000001,WGS84,9,32.673000000000002,1,Y,N,1,1960-10-13,,226
226027,LA TROBE RIVER @ SWING BRIDGE,LA TROBE RV SWING BR,0,AHD,0,55,511200,5778084,AMG84,-38.144912922000003,147.12781796499999,WGS84,,0,,N,N,1,2010-05-07,,226
226028,TYERS R @ PUMP HOUSE,TYERS R @ PUMP HOUSE,0,,0,55,451503,5778560,UTM,-38.139388769999996,146.44658050000001,WGS84,9,0,1,N,Y,1,1990-04-12,,226
226041,LAKE WELLINGTON @ BULL BAY,LAKE WELLINGTON,0,AHD,0,55,532876,5780415,UTM,-38.123375199999998,147.37508059999999,WGS84,9,0,1,Y,N,1,1975-03-19,,226
226204,LATROBE RIVER @ WILLOW GROVE,LATROBE @ WILLOW GVE,0,ARB,580,55,426308,5784017,UTM,-38.088505519999998,146.1596572,WGS84,9,80,9,Y,Y,1,1924-10-23,,226
226205,LATROBE RIVER @ NOOJEE,LATROBE @ NOOJEE,0,ARB,290,55,414035,5804037,UTM,-37.90701017,146.02211879999999,WGS84,9,238,9,Y,N,1,1925-05-13,,226
226209,MOE RIVER @ DARNUM,MOE R @ DARNUM,79.597999999999999,AHD,225,55,412633,5770880,UTM,-38.205668150000001,146.0021236,WGS84,9,91,9,Y,Y,1,1949-09-12,,226
226216,TANJIL RIVER @ TANJIL SOUTH,TANJIL @TANJIL SOUTH,69.245000000000005,AHD,358,55,433560,5783395,UTM,-38.094673190000002,146.24229009999999,WGS84,9,81,9,Y,Y,1,1955-04-05,,226
226218,NARRACAN CREEK @ THORPDALE,NARRACAN @ THORPDALE,0,ARB,66,55,428843,5763687,UTM,-38.271916179999998,146.1865277,WGS84,9,224,1,Y,N,1,1955-06-22,,226
226220,LOCH RIVER @ NOOJEE,LOCH RIVER,0,ARB,106,55,412644,5808497,UTM,-37.866685539999999,146.00683792000001,WGS84,9,262,9,Y,N,1,1957-03-06,,226
226222,LATROBE RIVER @ NEAR NOOJEE (US ADA R JUNCT.),LATROBE U/S ADA R,272.30399999999997,AHD,62,55,402650,5806658,UTM,-37.882244300000004,145.89298529999999,WGS84,9,310,9,Y,Y,1,1971-05-10,,226
226224,LATROBE RIVER @ ROSEDALE (ANABRANCH),LATROBE @ ROSEDALE,9.6999999999999993,AHD,4144,55,481555,5777709,UTM,-38.148173569999997,146.7894905,WGS84,9,0,1,Y,N,1,1936-12-01,,226
226226,TANJIL RIVER @ TANJIL JUNCTION,TANJIL @ TANJIL JUNC,0,ARB,289,55,429155,5796100,UTM,-37.979842169999998,146.19331500000001,WGS84,9,200,9,Y,Y,1,1960-05-25,,226
226227,LATROBE RIVER @ KILMANY SOUTH,LATROBE @ KILMANY S.,2.5710000000000002,AHD,4464,55,492900,5778721,UTM,-38.139213470000001,146.91897879999999,WGS84,9,0,1,Y,Y,1,1976-12-16,,226
226228,LATROBE RIVER @ ROSEDALE (MAIN STREAM),LATROBE @ ROSEDALE,9.6999999999999993,AHD,4144,55,481748,5778351,UTM,-38.142391420000003,146.79170959999999,WGS84,9,0,1,Y,Y,1,1936-12-01,,226
226235,TYERS RIVER @ TYERS JUNCTION,TYERS R @ TYERS JUC,0,ARB,132.19999999999999,55,441506,5798197,UTM,-37.961823770000002,146.33411219999999,WGS84,9,0,0,Y,Y,1,2001-10-05,,226
226253,TRIGGER CREEK @ GIPPSLAND WATER SYPHON,TRIGGER CK GW SYPHON,,,,55,444493.06,5804752.8990000002,MGA94,-37.90305833,146.36861666999999,GDA94,,0,,y,N,1,2016-05-30,,226
226402,MOE DRAIN @ TRAFALGAR EAST,MOE @ TRAFALGAR,0,GAU,622,55,431070,5774351,UTM,-38.175989459999997,146.21302069999999,WGS84,9,57,9,Y,Y,1,1957-06-07,,226
226406,LITTLE MORWELL ROVER @ BOOLARRA,LTL MORWELL@BOOLARRA,,,,55,434351.51000000001,5751184.8559999997,,-38.384999999999998,146.24833333300001,,,0,,N,N,1,,,226
226407,MORWELL RIVER @ BOOLARRA,MORWELL @ BOOLARRA,98.302000000000007,AHD,114,55,439351,5748787,UTM,-38.406961559999999,146.30536609999999,WGS84,9,0,1,Y,N,1,1958-10-06,,226
226408,MORWELL R @ YALLOURN,MORWELL R YALLOURN,0,ARB,622,55,444702,5770110.4000000004,UTM,-38.215145999999997,146.36831799999999,WGS84,9,47,9,N,Y,1,1943-02-09,,226
226410,TRARALGON CREEK @ KOORNALLA,TRARALGON @ KOORNALL,0,ARB,89,55,459050,5758231,UTM,-38.322972180000001,146.5315258,WGS84,9,94,1,Y,N,1,1953-07-09,,226
226415,TRARALGON CREEK @ TRARALGON SOUTH (JONES RD),TRARALGON C JONES RD,60,AHD,128,55,459805,5764127,UTM,-38.269870900000001,146.54049810000001,WGS84,9,68,1,Y,N,1,1974-06-04,,226
226602,AREA 2 SITE1 @ DOWDS MORASS NTH,DOWDS MORASS AREA2,-0.016,AHD,0,55,516003.72999999998,5777730.3899999997,UTM,-38.148027419000002,147.18264738900001,WGS84,9,0,0,N,N,1,2003-06-17,,226
226605,LAKE VICTORIA @ MCLENNAN'S STRAIT,L VICTORIA MCLENNANS,0,AHD,0,55,540395.66299999994,5788012.2750000004,UTM,-38.054600000000001,147.46044000000001,WGS84,,0,,N,N,1,2010-11-17,,226
226606,LAKE VICTORIA @ LOCH SPORT,L VICTORIA LOCHSPORT,0,,0,55,551177,5789006,UTM,-38.045098670000002,147.58325210000001,GDA94,,0,,N,N,1,2010-11-26,,226
226607,MCMILLAN STRAIT @ PAYNESVILLE,MCMILLAN STRAIT PAYN,0,AHD,0,55,564019,5803744.2000000002,UTM,-37.911589999999997,147.72828999999999,GDA94,,0,,N,N,1,2010-10-21,,226
226608,LAKE KING @ METUNG,LK KING AT METUNG,0,AHD,0,55,576509,5807127.7999999998,MGA94,-37.880000000000003,147.87,WGS84,,0,,N,N,1,2010-11-17,,226
226609,CUNNINGHAM ARM @ BULLOCK ISLAND,C'GHAM @ BULLOCK ISL,-1,AHD,0,55,585591,5806582.2000000002,UTM,-37.884239999999998,147.97333,GDA94,,0,,N,N,1,2010-10-19,,226
226611,HEART MORASS @ RICKETY BRIDGE,HEART MORASS RICKETY,,,,55,515736.23999999999,5779439.2999999998,AMG84,-38.132630390000003,147.17955684500001,AGD84,9,0,,N,N,1,2017-02-21,,226
226814,RAIN GAUGE @ MT TASSIE,R.G. MT TASSIE,0,,0,55,461784,5750077,UTM,-38.396577200000003,146.56236010000001,WGS84,9,0,0,Y,N,1,1998-05-04,,226
226815,RAIN GAUGE (TRARALGON CK) @ TRARALGON - EPA YARD,R.G.TRARALGON,0,,0,55,458982,5772514,UTM,-38.194248279999996,146.531575,WGS84,9,0,0,Y,N,1,1999-05-25,,226
226818,RAIN GAUGE @ BALOOK,R.G. BALOOK,0,,0,55,459952,5746341,UTM,-38.430165619999997,146.54116819999999,WGS84,9,0,0,Y,N,1,1999-06-10,,226
226819,RAIN GAUGE @ CALIGNEE NORTH,R.G.CALIGNEE NTH,0,,0,55,462063,5758780,UTM,-38.318157139999997,146.5660235,WGS84,9,0,0,Y,N,1,1999-05-25,,226
226825,RAINGAUGE @ MOE SOUTH,RG AT MOE STH,,,,55,434231.70000000001,5769648.9000000004,AMG66,-38.218600000000002,146.24868000000001,AGD66,,0,,N,N,1,2009-10-06,,226
226826,RAINGAUGE @ YARRAGON SOUTH,RG AT YARRAGON SOUTH,,,,55,420511,5763367.0999999996,UTM,-38.274099999999997,146.09125,WGS84,,382,,N,N,1,2009-10-21,,226
226827,RAINGAUGE @ THORPDALE PEAK,RG AT THORPDALE PK,,,,55,431275,5760002.4000000004,AMG66,-38.305309999999999,146.21396999999999,AGD66,,364,,N,N,1,2009-09-17,,226
226829,RAINGAUGE @ JERRALANG DOBBINS ROAD,RG @ JERRALANG DOBBI,,,,55,450883.59999999998,5754699.5,MGA94,-38.354520520000001,146.43785575999999,GDA94,,510,,N,N,1,2013-01-29,,226
227200,TARRA RIVER @ YARRAM,TARRA @ YARRAM,0,ARB,218,55,472361.77100000001,5732988.9919999996,UTM,-38.550964,146.682818,WGS84,9,35,1,Y,Y,1,1946-03-01,,227
227202,TARWIN RIVER @ MEENIYAN,TARWIN @ MEENIYAN,0,ARB,1067,55,412165,5729150,UTM,-38.581646210000002,145.99156930000001,WGS84,9,25,9,Y,Y,1,1955-06-22,,227
227205,MERRIMAN CREEK @ CALIGNEE SOUTH,MERRIMAN @ CALLIGNEE,172.44800000000001,AHD,36,55,469833,5755048,UTM,-38.352085809999998,146.65474639999999,WGS84,9,200,1,Y,N,1,1946-12-06,,227
227210,BRUTHEN CREEK @ CARRAJUNG LOWER,BRUTHEN @ CARRAJUNG,0,AHD,18,55,477651,5750309,UTM,-38.395023950000002,146.74406999999999,WGS84,9,159,1,Y,N,1,1952-09-05,,227
227211,AGNES RIVER @ TOORA,AGNES @ TOORA,0,ARB,67,55,445387,5722973,UTM,-38.639974299999999,146.3724776,WGS84,9,142,9,Y,Y,1,1952-09-05,,227
227213,JACK RIVER @ JACK RIVER,JACK R @ JACK R,0,ARB,34,55,459739,5735728,UTM,-38.525798690000002,146.538118,WGS84,9,70,1,Y,N,1,1960-10-01,,227
227219,BASS RIVER @ LOCH,BASS @ LOCH,0,ARB,52,55,388609,5753722,UTM,-38.357612629999998,145.7250841,WGS84,9,98,9,Y,N,1,1966-04-01,,227
227225,TARRA RIVER @ FISCHERS,TARRA R @ FISCHERS,0,ARB,16,55,461190,5741983,UTM,-38.469494169999997,146.55511060000001,WGS84,9,195,1,Y,N,1,1968-04-24,,227
227226,TARWIN RIVER EAST BRANCH @ DUMBALK NORTH,TARWIN @ DUMBALK N.,0,ARB,127,55,426838,5738399,UTM,-38.499633019999997,146.1609799,WGS84,9,58,9,Y,N,1,1969-01-08,,227
227227,WILKUR CREEK @ LEONGATHA,WILKUR @ LEONGATHA,0,ARB,106,55,408948,5750056,UTM,-38.392946199999997,145.95735869999999,WGS84,9,75,9,Y,N,1,1970-07-30,,227
227231,BASS RIVER @ GLEN FORBES SOUTH,BASS @ GLEN FORBES S,0,ARB,233,55,370463,5741320,UTM,-38.466903010000003,145.51517029999999,WGS84,9,20,9,Y,Y,1,1973-03-30,,227
227232,LANCE CREEK U/S LANCE CREEK RESERVOIR,LANCE CK U/S L. RES.,0,,14,55,383783,5738738,UTM,-38.49200158,145.66738330000001,WGS84,9,0,1,N,Y,1,1974-08-05,,227
227236,POWLETT RIVER @ D/S FOSTER CREEK JUNCTION,POWLETT @ D/S FOSTER,0,ARB,228,55,387508,5731353,UTM,-38.559016849999999,145.70889779999999,WGS84,9,36,9,Y,Y,1,1979-05-18,,227
227237,FRANKLIN RIVER @ TOORA,FRANKLIN @ TOORA,0,ARB,75,55,439771,5724088,UTM,-38.629562870000001,146.30804860000001,WGS84,9,64,9,Y,Y,1,1979-06-08,,227
227239,MERRIMAN CREEK @ STRADBROKE WEST,MERRIMAN @ STRADBROK,71.867999999999995,AHD,256,55,492658,5764652,UTM,-38.266009050000001,146.9160718,WGS84,9,93,1,Y,N,1,1983-11-18,,227
227242,MERRIMAN CREEK @ SEASPRAY TOWNSHIP,MERRIMAN @ SEASPRAY,0,AHD,8,55,516203,5752529,UTM,-38.37514934,147.18549820000001,WGS84,9,4,1,Y,N,1,1984-05-11,,227
227244,DEEP CREEK @ FOSTER,DEEP CK @ FOSTER,0,ARB,0,55,432312,5725707,UTM,-38.614435780000001,146.22251901000001,WGS84,9,0,1,Y,N,1,1993-04-29,,227
227245,LITTLE BASS RIVER @ POOWONG U/S LITTLE BASS RES.,LT. BASS RV POOWONG,0,ARB,0,55,395053.79999999999,5753559.5,UTM,-38.359855600000003,145.79880788,WGS84,9,0,1,Y,N,1,1999-05-18,,227
227246,COALITION CREEK,KORUMBURRA GOLF COUR,0,,0,55,396827,5748087.4000000004,UTM,-38.409367000000003,145.818297,WGS84,1,0,1,N,N,1,2004-06-08,,227
227248,BELLVIEW CREEK U/S BELLVIEW RESERVOIR,BELLVIEW CK,0,,0,55,396367,5749105,AMG84,-38.400145190000003,145.8131798,,1,15,1,Y,Y,1,1999-05-18,,227
227249,RUBY CREEK @ ARAWATA,RUBY CREEK ARAWATA,0,ARB,0,55,402379,5748848,AMG84,-38.403137770000001,145.8819819,GDA94,1,0,1,Y,N,1,1999-05-18,,227
227251,TARRA RIVER @ TARRA WEIR OFFTAKE,TARRA R @ WEIR O/T,0,,0,55,463301,5741305,UTM,-38.475693630000002,146.57927340000001,WGS84,9,138,9,Y,Y,1,2004-10-27,,227
227253,TARWIN R D/S FISH CK DRAIN,TARWIN RV D/S FISH C,0,,0,55,402377.5,5716499.9000000004,UTM,-38.694603999999998,145.877442,WGS84,9,4,9,N,Y,1,2001-11-08,,227
227254,POWLETT R D/S WONTHAGGI,POWLETT RV WONTHAGGI,0,,0,55,374664.09999999998,5730305.9000000004,UTM,-38.566732000000002,145.56133800000001,WGS84,9,5,9,N,Y,1,2004-01-15,,227
227258,ALBERT RIVER @ GELLIONDALE,ALBERT RV GELLIONDA,0,,0,55,462717,5730240,UTM,-38.57538504,146.57198821,WGS84,9,0,1,N,Y,1,2006-05-30,,227
227262,TARRA RIVER @ TARRAVILLE (BREWERY CK ROAD),TARRA R @ TARRAVILLE,0,,0,55,474170,5726447,UTM,-38.609973859999997,146.70332690000001,WGS84,9,0,1,N,Y,1,2006-07-17,,227
227264,COALITION CREEK @ LEONGATHA (SPENCERS ROAD BRIDGE),COALITION @ SPENCERS,0,ARB,0,55,409001,5743754,UTM,-38.44973718,145.95714934,WGS84,9,163,9,Y,N,1,2006-11-28,,227
227266,TARWIN RIVER @ KOONWARRA,TARWIN R KOONWARRA,0,,0,55,408996,5735402,UTM,-38.524993360000003,145.95600671,WGS84,1,0,1,Y,N,1,2008-09-22,,227
227270,FOSTER CREEK @ KORUMBURRA,FOSTER CK KORUMBURRA,,,,55,394617.59999999998,5745540,MGA94,-38.432195440000001,145.79260830000001,GDA94,,0,,N,N,1,2011-10-13,,227
227271,STONY CREEK @ MEENIYAN,STONY CK @ MEENYAN,,,,55,416259.696,5726805.7560000001,MGA94,-38.603299,146.038287,GDA94,,0,,N,N,1,2017-04-13,,227
227272,MERRIMAN CREEK @ SEASPRAY PUMP STATION,MERRIMAN CK PUMP STN,,,,55,514431.90000000002,5754732.4000000004,MGA94,-38.355455560000003,147.16517777999999,GDA94,,0,,y,Y,1,2013-09-25,,227
227273,POWLETT RIVER AT MOUTH OF POWLETT ROAD,POWLETT RV AT MOUTH,,,,55,370252.5,5729481.5999999996,MGA94,-38.573658610000003,145.5105533,GDA94,,0,,N,N,1,2016-11-03,,227
228272,KANANOOK CREEK AT WELLS STREET FRANKSTON,DAKAN0098,,,,55,335272,5776544,MGA94,-38.143900000000002,145.12,GDA94,,0,,N,N,1,1994-01-01,,228
228273,MONBULK CREEK OFF KAROO ROAD,DAMON0031,,,,55,346796.5,5803426.7000000002,MGA94,-37.903799999999997,145.25700000000001,GDA94,,0,,N,N,1,2007-01-01,,228
228274,PATTERSON RIVER AT NATIONAL WATER SPORTS CNTR BANGHOLME,DAPAT0573,,,,55,337362,5786174,MGA94,-38.057600000000001,145.14599999999999,GDA94,,0,,N,N,1,1994-01-01,,228
228275,KACKERABOITE CREEK UPSTREAM OLD MORNINGTON ROAD,WPKAC0007,,,,55,333590,5773971.5,MGA94,-38.166800000000002,145.09999999999999,GDA94,,0,,N,N,1,2007-01-01,,228
228276,KING PARROT CREEK UPSTREAM KOO WEE RUP LONGWARRY ROAD,WPKIN0070,,,,55,387635.29999999999,5773997.2999999998,MGA94,-38.174900000000001,145.71700000000001,GDA94,,0,,N,N,1,2007-01-01,,228
228277,LABERTOUCHE CREEK OFF LABERTOUCHE JACKSONS TRACK,WPLAB0036,,,,55,394464.20000000001,5785646.5,MGA94,-38.070799999999998,145.797,GDA94,,0,,N,N,1,2007-01-01,,228
228278,LOWER GUM SCRUB CREEK AT WENN ROAD,WPLGS0036,,,,55,363956,5776610,MGA94,-38.148099999999999,145.447,GDA94,,0,,N,N,1,2007-01-01,,228
228279,MINNIEBURN CREEK AT SOUTH ROAD,WPMIN0035,,,,55,398058.20000000001,5767540.2000000002,MGA94,-38.234400000000001,145.83500000000001,GDA94,,0,,N,N,1,2007-01-01,,228
228280,MUSK CREEK UPSTREAM KOO WEE RUP LONGWARRY ROAD,WPMUS0051,,,,55,387043.20000000001,5772575.0999999996,MGA94,-38.1877,145.71000000000001,GDA94,,0,,N,N,1,2007-01-01,,228
228281,OLIVERS CREEK AT BAYVIEW ROAD,WPOLI0014,,,,55,342224.09999999998,5760635.5,MGA94,-38.288499999999999,145.196,GDA94,,0,,N,N,1,2007-01-01,,228
228282,SWEETWATER CREEK AT GRANGE ROAD,WPSWE0007,,,,55,334463.29999999999,5774761.9000000004,MGA94,-38.1599,145.11099999999999,GDA94,,0,,N,N,1,2007-01-01,,228
228283,WYLIES DRAIN AT BAXTER-TOORADIN ROAD,WPWYL0023,,,,55,354501.29999999999,5771170.5,MGA94,-38.195700000000002,145.33799999999999,GDA94,,0,,N,N,1,2007-01-01,,228
228284,MCDONALDS DRAIN AT BALLARTO ROAD,WPMCD0115,,,,55,368873.09999999998,5775787.5,MGA94,-38.156300000000002,145.50299999999999,GDA94,,0,,N,N,1,2007-01-01,,228
228285,ARARAT CREEK AT NAR NAR GOO LONGWARRY ROAD,WPARA0063,,,,55,376610.09999999998,5784015.2999999998,MGA94,-38.083199999999998,145.59299999999999,GDA94,,0,,N,N,1,2007-01-01,,228
228286,DIAMOND CREEK AT ELLIS ROAD,WPDIA0074,,,,55,389562,5792003.7000000002,MGA94,-38.012900000000002,145.74199999999999,GDA94,,0,,N,N,1,2007-01-01,,228
228386,BALCOMBE CREEK AT NEPEAN HIGHWAY MOUNT MARTHA,BALCOMBE-MT MARTHA,,,,55,328271.5,5763052.5,MGA94,-38.264200000000002,145.03700000000001,GDA94,,4.3700000000000001,,N,N,1,,,228
228388,EUMMEMERING CREEK AT WORSLEY ROAD BANGHOLME,EUMM'NG-BANGHOLM,,,,55,340284.5,5788105.4000000004,MGA94,-38.040700000000001,145.18000000000001,GDA94,,7.0800000000000001,,N,N,1,,,228
228398,FERNY CREEK UPSTREAM MONBULK CREEK KNOXFIELD,DAFER0021,,,,55,346314.20000000001,5803473.5,MGA94,-37.903300000000002,145.25200000000001,GDA94,,0,,N,N,1,2007-01-01,,228
228604,CROYDON MAIN DRAIN AT BANGALOOK ROAD WALKWAY WEST-EAST,DACRO0028,,,,55,346773.09999999998,5811114,MGA94,-37.834499999999998,145.25899999999999,GDA94,,0,,N,N,1,2007-01-01,,228
229146,STRINGYBARK CREEK AT YARRA GLEN ROAD COLDSTREAM,S'BARK @ COLDSTREAM,,,,55,357400,5826800,MGA94,-37.694899999999997,145.38300000000001,GDA94,,0,,N,N,1,1973-10-18,,229
229289,LITTLE YARRA RIVER AT CORDUROY ROAD,LITTLE YARRA,,,,55,377072,5817984,MGA94,-37.777200000000001,145.60400000000001,GDA94,,0,,N,N,1,1998-01-01,,229
229295,BRUCES CREEK AT BEECH STREET,YABRC0076,,,,55,334074.59999999998,5846764.7999999998,MGA94,-37.511200000000002,145.12299999999999,GDA94,,0,,N,N,1,2007-01-01,,229
229296,CORANDERRK CREEK AT HEALESVILLE-KOO WEE RUP ROAD,YACOR0033,,,,55,369407.59999999998,5827662,MGA94,-37.689,145.51900000000001,GDA94,,0,,N,N,1,2007-01-01,,229
229297,EDGARS CREEK AT MURRAY ROAD,YAEDG0039,,,,55,321674.09999999998,5821800.0999999996,MGA94,-37.733699999999999,144.976,GDA94,,0,,N,N,1,2007-01-01,,229
229298,MCMAHONS CREEK AT WOODS POINT ROAD,YAMCM0059,,,,55,396958.29999999999,5826674.5999999996,MGA94,-37.7014,145.83099999999999,GDA94,,0,,N,N,1,2007-01-01,,229
229299,NEW CHUM CREEK AT ROAD 11 OFF MYERS CREEK ROAD,YANEW0050,,,,55,369351.09999999998,5833771.9000000004,MGA94,-37.633899999999997,145.51900000000001,GDA94,,0,,N,N,1,2007-01-01,,229
229416,OLINDA CREEK UPSTREAM HULL ROAD,YAOLI0037,,,,55,355701,5817544.2000000002,MGA94,-37.778100000000002,145.36099999999999,GDA94,,0,,N,N,1,2007-01-01,,229
229417,SCOTCHMAN CREEK AT GOLFERS DRIVE,YASCO0018,,,,55,331022.79999999999,5806195,MGA94,-37.876100000000001,145.07900000000001,GDA94,,0,,N,N,1,2007-01-01,,229
229418,STARVATION CREEK UPSTREAM WOODS POINT ROAD,YASTA0047,,,,55,394258.09999999998,5825112.2999999998,MGA94,-37.7151,145.80000000000001,GDA94,,0,,N,N,1,2007-01-01,,229
229419,YARRA RIVER AT SPADONIS RESERVE COLDSTREAM,YAYAR2151,,,,55,354512,5828284,MGA94,-37.681100000000001,145.34999999999999,GDA94,,0,,N,N,1,1994-01-01,,229
229420,YARRA RIVER AT PRINCES BRIDGE,YAYAR3884,,,,55,321168,5812297,MGA94,-37.819200000000002,144.96799999999999,GDA94,,0,,N,N,1,1994-01-01,,229
229421,O'SHANNASSY RIVER UPSTREAM CONFLUENCE WITH YARRA,YAOSH0127,,,,55,392907.29999999999,5825898.5,MGA94,-37.707900000000002,145.785,GDA94,,0,,N,N,1,2007-01-01,,229
229601,DIAMOND CREEK AT MAIN ROAD ELTHAM,DIAMOND @ ELTHAM,,,,55,336300,5822300,MGA94,-37.731999999999999,145.142,GDA94,,0,,N,N,1,1973-05-23,,229
229671,WOORI YALLOCK CREEK UPSTREAM WARBURTON HIGHWAY,WYC-WARBURTON HWY,,,,55,368700,5817900,MGA94,-37.776800000000001,145.50899999999999,GDA94,,0,,N,N,1,1989-08-31,,229
229677,SHEPHERD CREEK D/S HEALESVILLE KOOWEERUP RD NANGANA,SHEPHERD CK-NANGANA,,,,55,370788.70000000001,5807980.0999999996,MGA94,-37.866500000000002,145.53100000000001,GDA94,,0,,N,N,1,1993-05-20,,229
230200,MARIBYRNONG RIVER @ KEILOR,MARIBYRNONG @ KEILOR,10.625,AHD,1303,55,309336,5822178,UTM,-37.727706089999998,144.8364761,WGS84,9,29,9,Y,N,1,1907-05-20,,230
230202,JACKSON CREEK @ SUNBURY,JACKSON CK @ SUNBURY,182.08000000000001,AHD,337,55,300626,5838015,UTM,-37.58321737,144.74203564000001,WGS84,9,0,1,Y,N,1,1908-02-01,,230
230204,RIDDELLS CREEK @ RIDDELLS CREEK,RIDDELLS @ RIDELLS,357.21300000000002,AHD,79,55,294125,5851007,UTM,-37.464778760000002,144.67210539999999,WGS84,9,0,1,Y,N,1,1933-09-14,,230
230205,DEEP CREEK @ BULLA (D/S OF EMU CREEK JUNCT.),DEEP @ BULLA,82.825999999999993,AHD,865,55,305956,5832795,UTM,-37.631371999999999,144.80097369999999,WGS84,9,99,9,Y,Y,1,1955-06-21,,230
230206,JACKSON CREEK @ GISBORNE,JACKSON @ GISBORNE,418.77199999999999,AHD,96,55,285340,5849609,UTM,-37.475370480000002,144.57244320000001,WGS84,9,433,1,Y,N,1,1960-05-09,,230
230209,BARRINGO CREEK @ BARRINGO (U/S OF DIVERSION),BARRINGO CREEK,0,ARB,6,55,289900,5856928,UTM,-37.410503869999999,144.6260551,WGS84,9,0,1,Y,Y,1,1966-06-16,,230
230210,SALTWATER CREEK @ BULLENGAROOK,SALTWATER @ BULLEN.,463.54000000000002,AHD,39,55,281073,5849889,UTM,-37.471848020000003,144.52431240000001,WGS84,9,469,9,Y,N,1,1968-05-08,,230
230213,TURRITABLE CREEK @ MOUNT MACEDON,TURRITABLE @ MACEDON,457.89800000000002,AHD,15,55,286273,5855903,UTM,-37.41890497,144.5848096,WGS84,9,0,1,Y,N,1,1970-08-24,,230
230217,GARDEN HUT CREEK @ U/S OF LANCEFIELD RESERVIOR,GARDEN @ US LANCE.,,,,55,290800,5867700,AMG66,-37.313693170000001,144.6392591,AGD66,,0,,y,N,1,1977-07-20,,230
230218,BOLINDA CREEK @ MOUNT ELIZA,BOLINDA @ MT. ELIZA,,,,55,295016.29999999999,5861182.4000000004,AMG66,-37.373333330000001,144.685,AGD66,1,0,,y,N,1,1991-11-12,,230
230220,JACKSON CREEK @ CLARKFIELD,JACKSON CK CLARKF'LD,,,,55,300131.40000000002,5848280.9000000004,MGA94,-37.490780000000001,144.73921999999999,GDA94,9,0,,y,N,1,2004-02-18,,230
230227,MAIN CREEK @ KERRIE,MAIN CK @ KERRIE,,,,55,292900,5858600,AMG66,-37.396121059999999,144.6603949,AGD66,,0,,Y,N,1,1989-12-04,,230
230231,WILLIMIGONGON CK @ MT MACEDON-ANZAC RD,WILLIMIGONGON CK,,,,55,286986.40000000002,5858152.5,MGA94,-37.398940000000003,144.59350000000001,GDA94,1,0,,Y,N,1,1992-03-23,,230
230232,DEEP CREEK @ BOLINDA,DEEP CK @ BOLINDA,0,ARB,315,55,306826,5855493,UTM,-37.427114150000001,144.8167961,WGS84,9,0,1,Y,Y,1,1993-02-24,,230
230233,JACKSON CREEK @ GISBORNE TREATMENT PLANT,JACKSON CK TREAT.PL.,,,,55,289235.5,5848322.7999999998,MGA94,-37.487980559999997,144.6160806,GDA94,,0,,y,N,1,1993-03-24,,230
230239,STONEY CREEK U/S ORD HILL RESERVOIR,STONEY C ORD HILL RE,,,,55,287666.40000000002,5859697.7999999998,MGA94,-37.385179999999998,144.60162,GDA94,,0,,y,N,1,2002-04-30,,230
230240,JACKSON CREEK @ SALESIAN COLLEGE SUNBURY,JACKSON CK SALESIAN,,,,55,300140,5839340,ANG,-37.571178420000003,144.7368969,AGD66,,0,,y,N,1,2004-02-13,,230
230242,JACKSONS CREEK @ U/S RIDDLES CREEK RWP OUTFALL,JACKSONS CK U/S RWP,,,,55,297808.75199999998,5849062.2560000001,MGA94,-37.483237000000003,144.71318199999999,GDA94,,0,,N,N,1,2018-06-23,,230
230243,BOLINDA CREEK PDR FLOW @ BOLINDA CREEK OFFTAKE,BOLINDA CK PDR FLOW,,,,55,293497.75199999998,5861432.1960000005,MGA94,-37.370876260000003,144.6679206,GDA94,,0,,N,N,1,,,230
230244,TAYLORS CREEK AT WALKWAY DOWNSTREAM GREEN GULLY ROAD,MATAY0018,,,,55,308412,5822246.5,MGA94,-37.726999999999997,144.82599999999999,GDA94,,0,,N,N,1,2007-01-01,,230
230245,JACKSONS CREEK UPSTREAM SUNBURY-RIDDELLS ROAD,MAJAC0152,,,,55,295177.29999999999,5847962.5999999996,MGA94,-37.492600000000003,144.68299999999999,GDA94,,0,,N,N,1,2007-01-01,,230
230704,BOLINDA CREEK OFFTAKE @ BOLINDA CREEK,BOLINDA CK OFFTAKE,,,,55,293497,5861417.7999999998,UTM,-37.370876260000003,144.6679206,GDA94,,0,,Y,N,1,2012-01-17,,230
230706,MAIN CREEK OFFTAKE @ FORSTER RESERVOIR,MAIN CK OFFTAKE,,,,55,293810,5855778,UTM,-37.421739760000001,144.66987990000001,GDA94,,0,,Y,N,1,2012-06-20,,230
230707,PIPELINE INFLOW @ LANCEFIELD BASIN,INFLOW TO LANCEFIELD,,,,55,295703.29999999999,5871309.2000000002,UTM,-37.282277120000003,144.69554199999999,GDA94,,0,,Y,N,1,2011-12-21,,230
231102,CHERRY DRAIN PIPELINE AT ALTONA,YAMOO0083,,,,55,0,0,MGA94,0,0,GDA94,,0,,N,N,1,1966-05-30,1986-08-15 00:00:00.000,231
231200,WERRIBEE RIVER @ BACCHUS MARSH,WERRIBEE @ BACCHUS,99.043999999999997,,363,55,273214,5826449,UTM,-37.681017269999998,144.4282675,WGS84,9,119,9,Y,Y,1,1887-04-01,,231
231203,PYKES CREEK @ PYKES CREEK RESERVOIR,PYKES @ PYKES,363.74599999999998,AHD,125,55,261151,5833506,UTM,-37.614419580000003,144.29391860000001,WGS84,9,0,1,Y,N,1,1908-11-23,,231
231204,WERRIBEE RIVER @ WERRIBEE DIVERSION WEIR,WERRIBEE @ DIV. WEIR,0,ARB,1424,55,292934,5804924,UTM,-37.879526339999998,144.6455655,WGS84,9,31,9,Y,Y,1,1911-02-01,,231
231205,WERRIBEE RIVER @ MELTON RESERVOIR (TAIL GAUGE),WERRIBEE @ MELTON,56.744999999999997,AHD,1155,55,286131,5819552,UTM,-37.746228739999999,144.57259440000001,WGS84,9,77,9,Y,N,1,1917-01-01,,231
231208,WERRIBEE RIVER @ COBBLEDICK FORD,WERRIBEE RIVER,0,ARB,1356,55,287115,5811348,UTM,-37.820336480000002,144.5813459,WGS84,9,0,1,Y,Y,1,1930-03-06,,231
231211,LERDERDERG RIVER @ U/S GOODMAN CREEK JUNCTION,LERDERDERG @ GOODMAN,119.145,AHD,234,55,272973,5832020,UTM,-37.630721299999998,144.42720420000001,WGS84,9,134,9,Y,N,1,1956-05-31,,231
231213,LERDERDERG RIVER @ SARDINE CREEK O'BRIEN CROSSING,LERDERDERG @ SARDINE,424.73700000000002,AHD,153,55,266709,5846786,UTM,-37.496273979999998,144.36104979999999,WGS84,9,0,1,Y,Y,1,1959-04-15,,231
231214,PYRITES CREEK @ BACCHUS MARSH,PYRITES @ BACCHUS M.,,,,55,278800,5826600,AMG66,-37.681021559999998,144.4916016,AGD66,1,0,1,N,N,1,1960-05-10,,231
231221,WERRIBEE RIVER @ MELTON RESERVOIR (HEAD GAUGE),WERRIBEE @ MELTON,,,,55,285838.08500000002,5819713.0460000001,AMG66,-37.744709999999998,144.56932,WGS84,1,0,1,N,N,1,1916-07-26,,231
231222,PYKES CREEK @ PYKES CREEK RESERVOIR (H.GAUGE),PYKES @ PYKES RESERV,,,,55,261232.29999999999,5833999.2000000002,AMG66,-37.609999999999999,144.29499999999999,AGD66,1,0,1,N,N,1,1911-10-01,,231
231223,PYRITES CREEK @ MERRIMU RESERVOIR (HEAD GAUGE),PYRITES @ MERRIMU,,,,55,278664.09999999998,5831892.2999999998,AMG66,-37.633333329999999,144.4916667,AGD66,1,0,1,N,N,1,1969-09-26,,231
231225,WERRIBEE RIVER @ BALLAN (U/S OLD WESTERN HWY),WERRIBEE @ BALLAN,471.95100000000002,AHD,71,55,257155,5835013,UTM,-37.599805439999997,144.2491928,WGS84,9,0,1,N,N,1,1973-05-15,,231
231231,TOOLERN CREEK @ MELTON SOUTH,TOOLERN @ MELTON,87.031000000000006,AHD,95,55,286628,5821625,UTM,-37.727676959999997,144.57883910000001,WGS84,9,0,1,N,Y,1,1979-05-03,,231
231234,PARWAN CREEK @ PARWAN,PARWAN CK @ PARWAN,0,ARB,159,55,272182,5821729,UTM,-37.723261090000001,144.41509919999999,WGS84,9,0,1,N,Y,1,1994-03-21,,231
231236,LONG GULLY CREEK @ BLACKWOOD,LONG GULLY BLACKWOOD,,,,55,261304.068,5851132.3310000002,ANG,-37.455759999999998,144.30137999999999,WGS84,1,0,1,y,N,1,2002-12-18,,231
232200,LITTLE RIVER @ LITTLE RIVER,LITTLE @ LITTLE,24.475000000000001,AHD,417,55,279102,5796193,UTM,-37.954893550000001,144.48574780000001,WGS84,9,0,1,Y,Y,1,1887-05-16,,232
232201,MOORABOOL RIVER EAST BRANCH @ BOLWARRAH WEIR,MOORABOOL R E BRANCH,0,GAU,0,55,250620,5839216,UTM,-37.560219830000001,144.17667969999999,WGS84,9,0,1,Y,N,1,1908-08-11,,232
232202,MOORABOOL RIVER @ BATESFORD,MOORABOOL @ BATESFOR,17.109999999999999,AHD,1088,55,261303,5780762,UTM,-38.089311520000003,144.27822492000001,WGS84,9,29,9,Y,Y,1,1908-01-01,,232
232204,MOORABOOL RIVER @ MORRISONS,MOORABOOL @ MORRISON,297.50099999999998,AHD,575,55,245135,5816426,UTM,-37.763872360000001,144.10669540000001,WGS84,9,0,1,Y,Y,1,1906-05-20,,232
232209,MOORABOOL RIVER @ SHEOAKS,MOORABOOL R SHEOAKS,0,,0,55,247126,5801699,UTM,-37.896993960000003,144.12412639999999,WGS84,9,0,0,Y,N,1,1967-01-09,,232
232210,MOORABOOL RIVER WEST BRANCH @ LAL LAL,MOORABOOL @ LAL LAL,0,ARB,83,55,239028,5829646,UTM,-37.64315379,144.04218750000001,WGS84,9,488,9,Y,Y,1,1967-03-22,,232
232211,MOORABOOL RIVER WEST BRANCH @ MOUNT DORAN,MOORABOOL @ DORAN,0,ARB,292,55,243845,5822217,UTM,-37.711383519999998,144.09410829999999,WGS84,9,0,1,Y,N,1,1970-06-26,,232
232213,LAL LAL CREEK @ U/S OF BUNGAL DAM,LAL LAL @ BUNGAL DAM,,,,55,238334.39999999999,5828343.5,MGA94,-37.654680560000003,144.03386939999999,GDA94,9,470,9,y,N,1,1977-06-06,,232
232214,BLACK CREEK @ U/S OF BUNGAL DAM,BLACK @ BUNGAL DAM,,,,55,240761.878,5831181.8109999998,AMG66,-37.629820000000002,144.06236000000001,WGS84,1,0,1,N,N,1,1977-06-06,,232
232215,WOOLLEN CREEK @ U/S OF BUNGAL DAM,WOOLLEN @ BUNGAL DAM,,,,55,242400,5830800,AMG66,-37.633717500000003,144.0807662,AGD66,1,0,1,N,N,1,1977-06-06,,232
232217,MOORABOOL R WEST BRANCH @ MOORABOOL RESERVOIR HG,MOORABOOL WB RES HG,,,,55,242346.89999999999,5843944.2999999998,MGA94,-37.515510059999997,144.08476959999999,GDA94,9,0,1,N,N,1,2009-07-15,,232
232219,LAL LAL CREEK @ BEALES RESERVOIR,LAL LAL C BEALES RES,,,,55,237294,5840891,ANG,-37.541439869999998,144.0265923,GDA94,1,595,1,N,N,1,2007-12-20,,232
232220,LAL LAL CREEK @ WILSON RESERVOIR H.G.,LAL LAL C WILSON RES,,,,55,236428,5843881,ANG,-37.514278709999999,144.01787529999999,GDA94,1,618,1,N,N,1,2007-12-18,,232
232221,MOORABOOL RIVER EAST BRANCH @ BOSTOC RESERVOIR,BOSTOCK RES. H.G.,0,,0,55,251646,5834163,UTM,-37.60598718,144.1865698,WGS84,9,0,1,Y,N,1,2001-05-30,,232
232222,WEST MOORABOOL RIVER @ LAL LAL RES. H.G.,LAL LAL RES. H.G.,,,,55,241982,5826002,UTM,-37.67679004,144.07433929999999,WGS84,9,0,1,N,N,1,2007-12-07,,232
232223,FRAWLEY CREEK @ U/S WILSON RESERVOIR,FRAWLEY CK WILSON RS,,,,55,235899.48800000001,5844902.8080000002,AMG66,-37.504930000000002,144.01227,WGS84,1,0,1,N,N,1,1995-06-20,,232
232224,SLATER CREEK @ U/S WILSON RESERVOIR,SLATER CK WILSON RES,0,ARB,0,55,236987.40599999999,5844840.6560000004,,-37.505800000000001,144.02454,WGS84,1,0,1,Y,N,1,1995-06-22,,232
232225,MAHARS CREEK @ U/S WILSON RESERVOIR,MAHARS CK @ U/S WILS,0,ARB,0,55,236563.53899999999,5845201.6169999996,,-37.502429999999997,144.01988,WGS84,1,0,1,y,N,1,1995-09-28,,232
232227,MOORABOOL RIVER @ SHEOAKS DIVERSION WEIR,MOORABOOL R SHEOAKS,0,GAU,0,55,247482,5801917,UTM,-37.89513041,144.1282468,WGS84,9,0,0,Y,N,1,2000-07-25,,232
232228,STONEY CREEK @ UPPER STONEY RESERVOIR SPILLWAY,UPPER STONEY RES,0,AHD,0,55,254341,5810501,UTM,-37.819730819999997,144.20908159999999,WGS84,9,0,0,Y,N,1,2000-07-25,,232
232230,EAST MOORABOOL RIVER @ KORWEINGUBOORA RES H.G.,KORWEINGUBOORA RES.,0,,0,55,248130,5844919,UTM,-37.508201880000001,144.15047709999999,WGS84,9,0,0,Y,N,1,1983-01-01,,232
232231,EAST MOORABOOL RIVER @ KORWEINGUBOORA RES P.D.R.,KORWEINGUBOORA PDR,0,,0,55,248292,5844868,UTM,-37.508705190000001,144.1522903,WGS84,9,0,0,Y,N,1,2000-07-25,,232
232232,EAST MOORABOOL RIVER @ BOSTOCK RES (COMPENSATION WEIR),BOSTOCK RES COMPWEIR,0,GAU,0,55,251802,5834033,UTM,-37.607199620000003,144.18829099999999,WGS84,9,0,0,Y,N,1,2000-07-25,,232
232233,PADDOCK CREEK U/S BOSTOCK RES,PADDOCK C U/S BOSTOC,0,,0,55,249486,5835467,UTM,-37.593662379999998,144.16257429999999,WGS84,9,0,1,Y,N,1,2000-08-04,,232
232234,EAST MOORABOOL R U/S BOSTOCK RES,E MOORABOOL R BOSTOC,0,,0,55,250574,5835489,UTM,-37.593759839999997,144.17489119999999,WGS84,9,0,1,Y,N,1,2000-08-04,,232
232235,DEVIL CREEK U/S MOORABOOL RESERVOIR,DEVIL CK U/S M'BOOL,,,,55,241056.22099999999,5844911.7680000002,AMG66,-37.506309999999999,144.07053999999999,WGS84,1,0,1,N,N,1,2001-05-09,,232
232236,WEST MOORABOOL RIVER U/S MOORABOOL RESERVOIR,WEST MOORABOOL R,,,,55,241400,5846000,AMG66,-37.496610250000003,144.07480709999999,AGD66,1,0,1,N,N,1,2001-05-09,,232
232237,BOLWARRA RES. H.G.,BOLWARRA RES HG,0,GAU,0,55,250636,5839391,UTM,-37.55864871,144.17692020000001,WGS84,9,0,0,Y,N,1,2002-05-23,,232
232238,STONEY CREEK @ UPPER STONEY CK RES NO 2 H.G.,U.STONEY CK RES HG 2,0,AHD,0,55,253186,5810138,UTM,-37.822687129999998,144.19585040000001,WGS84,9,0,0,Y,N,1,2003-11-19,,232
232239,STONEY CREEK @ UPPER STONEY CK RES NO 3 H.G.,U.STONEY CK RES HG 3,0,AHD,0,55,253352,5810042,UTM,-37.823596219999999,144.19770159999999,WGS84,9,0,0,Y,N,1,2003-11-19,,232
232242,MOORABOOL R @ COOPERS CROSSING MEREDITH,MOORABOOL R MEREDITH,,,,55,247681.12299999999,5805612.4689999996,ANG,-37.861919999999998,144.1318,WGS84,1,0,1,N,N,1,2007-02-02,,232
232243,WHISKY CREEK @ WHISKY CREEK DIVERSION WEIR,WHISKY CK DIV. WEIR,,,,55,241549.29999999999,5841454.5,UTM,-37.537569910000002,144.07489580000001,GDA94,,604,,N,N,1,2011-11-22,,232
232704,NO 2 INFLOW CHANNEL @ UPPER STONEY CREEK RES,NO 2 I/FLOW CH STONY,0,GAU,0,55,252678,5811074,UTM,-37.81412349,144.19040480000001,WGS84,9,0,0,Y,N,1,2000-07-25,,232
232705,BOSTOCK CHANNEL @ EGERTON ROAD,BOSTOCK CH EGERTON R,0,,0,55,250751,5831280,UTM,-37.631699259999998,144.1754598,WGS84,9,0,0,Y,N,1,2000-07-25,,232
232706,KORWEINGUBOORA OUTLET CHANNEL @ KORWEINGUBOORA RES,KORWEINGUBOORA O/LET,0,GAU,0,55,248208,5844901,UTM,-37.508385199999999,144.15135230000001,WGS84,9,0,0,Y,N,1,2000-07-25,,232
232708,BALLAN CHANNEL D/S BOSTOCK CHANNEL JUNCTION,BALLAN CH D/S BOSTOC,0,,0,55,253490,5826734,UTM,-37.673364079999999,144.2049299,WGS84,9,0,0,Y,N,1,2001-06-08,,232
232709,BALLAN CHANNAL @ 26.1 KM GAUGE,BALLAN CH @ 26.1KM,0,,0,55,251498,5818828,UTM,-37.743999649999999,144.1796703,WGS84,9,0,1,Y,N,1,2000-08-04,,232
232710,BALLAN CHANNEL @ 35.3 KM GAUGE,BALLAN CH @ 35.3 KM,0,,0,55,253257,5814489,UTM,-37.783537039999999,144.19813740000001,WGS84,9,0,0,Y,N,1,2000-08-04,,232
232712,WILSON CHANNEL UPSTREAM BEALE'S RESERVOIR,WILSON CH U/S BEALES,,,,55,236415.89999999999,5841837.4000000004,UTM,-37.532670420000002,144.0170056,GDA94,,0,,N,N,1,2010-05-18,,232
232713,BEALE CHANNEL @ BULLY PARK,BEALE CH BULLY PARK,,,,55,237319.60000000001,5840231.7999999998,UTM,-37.547380889999999,144.02664580000001,GDA94,,0,,N,N,1,2010-05-11,,232
232714,MOORABOOL CHANNEL @ BULLY PARK,MOORABOOL C BULLY PK,,,,55,237278.70000000001,5840100.5999999996,UTM,-37.548550210000002,144.02613650000001,GDA94,,0,,N,N,1,2010-05-11,,232
232715,MOORABOOL CHANNEL @ BUNGAREE,MOORABOOL C BUNGAREE,,,,54,763944.69999999995,5839851.7999999998,UTM,-37.550440270000003,143.987784,GDA94,,0,,N,N,1,2010-05-26,,232
232800,RAINGAUGE (STONY CK) @ UPPER STONEY CK RESERVOIR,R.G.STONY CK RES.,0,,0,55,254237,5810132,UTM,-37.823024719999999,144.20777609999999,WGS84,9,0,0,Y,N,1,2000-05-29,,232
233200,BARWON RIVER @ POLLOCKSFORD,BARWON POLLOCKSFORD,24.074000000000002,AHD,2713,55,253492,5774521,UTM,-38.14339597,144.18710041,WGS84,9,0,1,Y,Y,1,1906-07-01,,233
233201,BARWON RIVER @ WINCHELSEA,BARWON WINCHELSEA,0,ARB,1052,54,761548.81499999994,5763378.301,UTM,-38.239449999999998,143.98841999999999,WGS84,9,0,1,Y,Y,1,1922-02-16,,233
233209,LEIGH RIVER @ INVERLEIGH,LEIGH @ INVERLEIGH,0,ARB,881,55,242392,5779017,UTM,-38.099828090000003,144.06221219,WGS84,9,64,9,n,N,1,1946-03-15,,233
233211,BIRREGURRA CREEK @ RICKETTS MARSH,BIRREGURRA @ RICKETT,98.906999999999996,AHD,87.700000000000003,54,748217,5757511,UTM,-38.296042489999998,143.838326,WGS84,9,0,1,Y,Y,1,1953-06-19,,233
233213,LEIGH RIVER @ SHELFORD,LEIGH @ SHELFORD,0,,839,54,761375,5788449,UTM,-38.013852780000001,143.9772528,WGS84,9,0,1,Y,Y,1,1954-05-12,,233
233214,BARWON RIVER EAST BRANCH @ FORREST,BARWON @ FORREST,0,ARB,17,54,737900,5731500,,-38.532988080000003,143.72927960000001,,1,0,1,Y,Y,1,1955-05-27,,233
233215,LEIGH RIVER @ MOUNT MERCER,LEIGH @ MERCER,0,ARB,593,54,756918,5811162,UTM,-37.810681860000003,143.9184477,WGS84,9,300,9,Y,Y,1,1956-10-11,,233
233217,BARWON RIVER @ GEELONG,BARWON @ GEELONG,0,ARB,3925,55,267562,5772691,UTM,-38.163605590000003,144.34689219000001,WGS84,9,0,1,Y,Y,1,1960-11-18,,233
233218,BARWON RIVER @ INVERLEIGH,BARWON @ INVERLEIGH,0,,1269,54,762042,5773384,UTM,-38.14925264,143.99035979999999,WGS84,9,0,1,Y,Y,1,1961-03-15,,233
233223,WARRAMBINE CREEK @ WARRAMBINE,WARRAMBINE @ WARRAMB,0,ARB,57,54,751925,5798213,UTM,-37.928637000000002,143.86631159999999,WGS84,9,186,9,Y,N,1,1970-06-02,,233
233224,BARWON RIVER @ RICKETTS MARSH,BARWON @ RICKETTS,96.822999999999993,AHD,593,54,747700,5754286,UTM,-38.325214670000001,143.83355109999999,WGS84,9,0,1,Y,Y,1,1971-07-27,,233
233228,BOUNDARY CREEK @ YEODENE,BOUNDARY @ YEODENE,0,ARB,39,54,736670,5743949,UTM,-38.421250090000001,143.71097990000001,WGS84,9,0,1,Y,Y,1,1979-06-23,,233
233229,BOUNDARY CREEK @ D/S OF MACDONALDS DAM,BOUNDARY @ MACDONALD,,,,54,734164,5745422.9000000004,MGA94,-38.408774940000001,143.68182752999999,GDA94,1,0,1,N,N,1,1989-12-04,,233
233231,BOUNDARY CREEK @ U/S OF MCDONALDS DAM,BOUNDARY @ MCDONALDS,0,ARB,27,54,733561.26399999997,5745991.7010000004,,-38.403678999999997,143.67472799999999,WGS84,1,0,1,N,N,1,1989-12-04,,233
233240,MATTHEWS CREEK @ CHANNEL OFFTAKE,MATTHEWS CK @ O/TAKE,0,ARB,18.600000000000001,54,747509,5742439,UTM,-38.431905110000002,143.83553139,GDA94,9,0,1,Y,N,1,2000-08-02,,233
233244,WEST BARWON RIVER @ WEST BARWON RESERVOIR H.G.,WEST BARWON RES H.G.,0,,0,54,737093,5731708,UTM,-38.53133107,143.71996055,WGS84,9,0,1,Y,N,1,2001-11-28,,233
233245,WEST BARWON RIVER @ COMPENSATION WEIR SPILLWAY,WEST BARWON COMP WER,0,GAU,51,54,737400,5732167,UTM,-38.52711738,143.72332295000001,WGS84,9,0,0,Y,N,1,2000-09-01,,233
233246,CALLAHAN CREEK @ OFFTAKE,CALLAHAN CK O/TAKE,0,GAU,34.200000000000003,54,740743,5735175,UTM,-38.499142720000002,143.76059608,WGS84,9,0,0,Y,N,1,2000-11-10,,233
233247,BARWON RIVER @ KILDEAN LANE,BARWON R @ KILDEAN,0,ARB,864,54,756880.27599999995,5756880.4639999997,UTM,-38.299280000000003,143.9375,WGS84,9,0,1,Y,Y,1,1993-06-17,,233
233250,AGROFORESTRY SITE @ RACECOURSE PADDOCK GERANGAMETE,AGROFORESTRY SITE,0,ARB,1,54,738357,5740918,UTM,-38.448086500000002,143.73131222999999,WGS84,9,0,1,Y,N,1,1994-07-28,,233
233257,DEWING CREEK @ BIBIRAGURRA-FORREST ROAD,DEWING CK,0,,0,54,741663,5739035,UTM,-38.464147619999999,143.76980320999999,WGS84,9,0,1,Y,N,1,2000-08-02,,233
233258,PENNYROYAL CREEK @ RAILWAY CULVERT,P'ROYAL C RAILWAY CV,0,ARB,0,54,749577,5744978,UTM,-38.408476159999999,143.85829433000001,WGS84,9,149,9,Y,N,1,2000-08-07,,233
233259,WURDIBOLUC RESERVOIR H.G.,WURDIBOLUC RES HG,0,,0,55,241998,5758756,UTM,-38.282077549999997,144.05037238,WGS84,9,0,0,Y,N,1,2003-04-08,,233
233267,WEST BARWON R U/S BARRAMUNGA,WEST BARWON BARRAMUA,0,ARB,0,54,736231,5726314,ANG,-38.580100000000002,143.71190000000001,AGD66,1,0,1,,N,1,2006-12-11,,233
233268,EAST BARWON RIVER @ FLUME,E. BARWON R @ FLUME,0,ARB,0,54,738162,5734190,UTM,-38.508703169999997,143.73136629999999,WGS84,9,0,1,N,N,1,2009-07-03,,233
233269,BARWON RIVER U/S LOWER BARRAGE OF GEELONG WETLANDS,BARWON R U/S BARRAGE,0,AHD,0,55,273342,5767266,UTM,-38.213920330000001,144.41107425999999,WGS84,,0,,Y,N,1,2012-04-23,,233
233271,CLARKES CREEK D/S DIVERSION WEIR,CLARKES CK DIV WEIR,,,,54,759080.80000000005,5843987.7000000002,UTM,-37.514595149999998,143.93133750000001,GDA94,,0,,N,N,1,2011-05-12,,233
233272,FELLMONGERS CREEK @ GONG GONG RES. H.G.,FELLMONGERS C AT RES,,,,54,759124.80000000005,5840255.7999999998,UTM,-37.548171119999999,143.93314749999999,GDA94,,0,,y,N,1,2011-03-01,,233
233273,BOUNDARY CREEK @ BARONGAROOK,BOUNDARY CK BARONGAR,,,,54,729923.5,5744889.5999999996,MGA94,-38.414676980000003,143.63348432999999,GDA94,,215,,N,N,1,2014-06-23,,233
233274,Fellmongers Creek @ U/S Gong Gong Reservoir,Fellmongers Ck,,,,54,759712.42099999997,5841547.7539999997,MGA94,-37.536375999999997,143.939334,GDA94,,0,,N,N,1,2017-06-23,,233
233275,Boundary Creek @ U/S Big Swamp,Boundary Ck U/S,,,,54,735028.19999999995,5743835.2999999998,,-38.422707042586559,143.69223091156348,GDA94,,0,,Y,N,1,,,0
233600,LAKE MURDEDUKE,LAKE MURDEDUKE,114,AHD,0,54,755573,5769909,UTM,-38.182386469999997,143.91787414999999,WGS84,9,0,1,Y,N,1,1980-02-01,,233
233603,REEDY LAKE AT CONNEWARRE,REEDY LK CONNEWERRE,,,,55,274821.00300000003,5767928.0199999996,MGA94,-38.208463500000001,144.4281478,GDA94,,0,,,N,1,2016-04-15,,233
233604,HOSPITAL SWAMP AT CONNEWARRE,HOSPITAL SWAMP CONNE,,,,55,272454.00199999998,5765454.0199999996,MGA94,-38.230142399999998,144.40034600000001,GDA94,,0,,,N,1,2016-04-18,,233
233605,GILES CREEK @ KIRKS RESERVOIR H.G,GILES CK @ KIRKS,,,,54,759291.55200000003,5839795.9139999999,MGA94,-37.552394,143.93521100000001,GDA94,,0,,N,N,1,2018-02-15,,233
233703,WURDIBOLUC INLET CHANNEL @ EAST BARWON OFFTAKE,WURDIBOLUC INLET CH,0,GAU,0,54,738157,5734197,UTM,-38.508641500000003,143.73130657999999,WGS84,9,0,0,Y,N,1,2000-07-25,,233
233704,CALLAHAN CHANNEL @ OFFTAKE,CALLAHAN CH @ O/TAKE,0,,0,54,740792,5735154,UTM,-38.499318510000002,143.76116458000001,WGS84,9,0,0,Y,N,1,2000-09-01,,233
233706,PINCOTT CHANNEL D/S PINCOTT RESERVOIR,PINCOTT CH D/S RES.,,,,54,760827.71600000001,5840228.125,UTM,-37.547939999999997,143.95240999999999,WGS84,1,0,1,N,N,1,1997-05-22,,233
233707,PINCOTT-WHITE SWAN CHANNEL U/S LONG HILL AQUADUCT,PINCOTT-W. SWANN CH.,,,,54,759505.11699999997,5841775.9730000002,ANG,-37.534379999999999,143.93691000000001,WGS84,1,0,1,N,N,1,2005-10-06,,233
233708,BEALE-PINCOTT CHANNEL @ KIERCES RD,BEALE-PINCOTT CH.,,,,54,762249.82200000004,5840165.5290000001,UTM,-37.548099999999998,143.96851000000001,WGS84,1,0,1,N,N,1,1997-05-22,,233
233709,MATTHEWS CHANNEL @ SYPHON,MATTHEWS CH @ SYPHON,0,,0,54,747425.77399999998,5742484.4570000004,UTM,-38.431519000000002,143.834563,WGS84,9,0,0,Y,N,1,2000-07-06,,233
233710,PENNYROYAL CHANNEL D/S OF OFFTAKE,PENNYROYAL C D/S O/T,0,,0,54,749562,5744926,UTM,-38.4089484,143.85814119,WGS84,9,152,9,Y,N,1,2000-07-06,,233
233711,WURDIBOLUC CHANNEL @ 8.5 MILE,WURDIBOLUC CH 8.5M,0,GAU,0,54,742541,5740586,UTM,-38.449947960000003,143.77931925999999,WGS84,9,150,9,Y,N,1,2000-07-06,,233
233712,WURDIBOLUC INLET CHANNEL @ 12 MILE,WURDIBOLUC 12 MIL,0,ARB,0,54,745360,5743212,UTM,-38.425540030000001,143.81066948,WGS84,9,0,0,Y,N,1,2000-08-02,,233
233718,BALLARAT STH WASTE WATER TREATMENT PLANT O/FALL,BALLARAT S WWTP O/F,,,,54,751125.09900000005,5833395.9639999997,AMG66,-37.612139999999997,143.84504999999999,WGS84,1,0,1,N,N,1,2001-08-29,,233
233723,WURDIBOLUC INLET CHANNEL @ DEWINGS SYPHON,WBIC AT DEWINGS SYPH,,,,54,741690.54399999999,5739097.5619999999,UTM,-38.463577000000001,143.77009699999999,WGS84,,0,,N,N,1,2014-07-16,,233
233724,DEWING'S CHANNEL @ WBIC JUNCTION,DEWING'S CH AT WBIC,,,,54,741412.80000000005,5738793.2999999998,MGA94,-38.466524409999998,143.76703240000001,GDA94,,0,,y,N,1,2015-01-13,,233
233801,RAINGAUGE (WEST BARWON R) @ WEST BARWON DAM,RG WEST BARWON R,0,,0,54,737045,5731690,UTM,-38.531505889999998,143.71941656999999,WGS84,9,0,1,Y,N,1,1995-05-11,,233
233802,RAINGAUGE MOUNT SABINE,R.G. MT SABINE,0,,0,54,737636,5721414,UTM,-38.623850169999997,143.72969074,WGS84,9,0,1,Y,N,1,1996-12-20,,233
233803,RAINGAUGE MOUNT COWLEY,R.G. MT COWLEY,0,,0,54,749264,5729503,UTM,-38.547852390000003,143.86021699,WGS84,9,0,1,Y,N,1,1996-12-20,,233
233813,RAINGAUGE @ BOONAH,R.G. BOONAH,0,,0,54,760023,5744518,UTM,-38.40963885,143.97795120999999,WGS84,9,0,0,Y,N,1,2000-05-29,,233
233814,RAINGAUGE @ BENWERIN,R.G. BENWERIN,0,,0,54,754145,5736497,UTM,-38.483522520000001,143.91361767000001,WGS84,9,0,0,Y,N,1,1999-04-09,,233
233815,RAINGAUGE @ BUNINYONG,R.G. BUNINYONG,0,,0,54,759582,5826394,UTM,-37.672820379999997,143.94323399999999,WGS84,9,0,0,Y,N,1,2000-05-29,,233
234200,WOADY YALOAK RIVER @ PITFIELD,WOADY YALOAK@PITFI'D,0,ARB,324,54,727619.59999999998,5812255,UTM,-37.808599000000001,143.58557999999999,WGS84,9,0,1,Y,N,1,1917-08-07,,234
234201,WOADY YALOAK RIVER @ CRESSY (YARIMA),WOADY YALOAK@CRESSY,0,,1158,54,732002,5789557,UTM,-38.011871530000001,143.64266019999999,WGS84,9,0,1,Y,Y,1,1955-05-08,,234
234203,PIRRON YALLOCK CREEK @ PIRRON YALLOCK (ABOVE H'WY BR.),PIRRON YAL'K @HWY BR,121.699,AHD,166,54,711410,5752133,UTM,-38.353894840000002,143.41943015000001,WGS84,9,0,1,Y,Y,1,1964-04-30,,234
234205,NO. 1 WATERWAY @ LAKE TERANGPOM,NO 1 WATERWAY,0,ARB,0,54,703252,5779116,UTM,-38.112799410000001,143.31840883000001,WGS84,9,0,1,Y,N,1,1963-07-30,,234
234209,DEAN CREEK @ LAKE COLAC,DEAN @ LAKE COLAC,0,ARB,49,54,723596,5753521,UTM,-38.338438689999997,143.55832482,WGS84,9,0,1,Y,N,1,1975-11-12,,234
234603,LAKE CORANGAMITE @ WOOL WOOL,L. CORANGAMITE WOOL,0,AHD,0,54,711504.66500000004,5766490.7390000001,UTM,-38.224589999999999,143.41622000000001,WGS84,9,112,9,Y,N,1,2003-05-27,,234
234605,LAKE GNARPURT @ GNARPURT,LAKE GNARPURT,0,AHD,0,54,712242,5783572,UTM,-38.07060697,143.41954749999999,WGS84,9,0,1,Y,N,1,1966-08-01,,234
234606,LAKE COLONGULAC @ CAMPERDOWN,LAKE COLANGULAC,0,AHD,0,54,688277,5769980,UTM,-38.198326649999998,143.15012629,WGS84,9,0,1,Y,N,1,1965-04-30,,234
234607,LAKE GNOTUK @ CAMPERDOWN,LAKE GNOTUK,0,AHD,0,54,683790,5766708,UTM,-38.228722900000001,143.09976377999999,WGS84,9,0,1,Y,N,1,1964-12-18,,234
234608,LAKE BULLEM MERRI @ CAMPERDOWN (SOUTH END),LAKE BULLEN MERRI,0,AHD,0,54,683601,5763146,UTM,-38.260842420000003,143.09852834,WGS84,9,0,1,Y,N,1,1978-05-04,,234
234609,LAKE TOOLIOROOK @ LISMORE,LAKE TOOLIOROOK,0,AHD,0,54,700628,5794148,UTM,-37.978013840000003,143.284288,WGS84,9,0,1,Y,N,1,1965-07-19,,234
234610,LAKE BOOKAR @ CAMPERDOWN,LAKE BOOKAR,0,,0,54,684509,5776360,UTM,-38.141645179999998,143.10546843,WGS84,9,0,1,Y,N,1,1979-07-20,,234
234611,LAKE KARIAH @ CAMPERDOWN,LAKE KARIAH,0,AHD,0,54,693926,5772855,UTM,-38.17123599,143.21381004,WGS84,9,0,1,Y,N,1,1979-07-20,,234
234801,RAINGAUGE (LAKE COLAC) @ COLAC,R.G. COLAC,,,,54,726384.69999999995,5753417.2000000002,MGA94,-38.338839999999998,143.59028000000001,GDA94,,0,,,N,1,2016-01-29,,234
235202,GELLIBRAND RIVER @ UPPER GELLIBRAND,GELLIBRAND @ GELLI.,0,ARB,53,54,731446,5728372,UTM,-38.562849370000002,143.65634815999999,WGS84,9,0,1,Y,Y,1,1949-08-25,,235
235203,CURDIES RIVER @ CURDIE,CURDIES @ CURDIE,3.8969999999999998,AHD,790,54,671064,5742982,UTM,-38.444980549999997,142.9601945,WGS84,9,15,9,Y,Y,1,1955-10-05,,235
235204,LITTLE AIRE CREEK @ BEECH FOREST,LITTLE AIRE @ BEECH,0,ARB,11,54,720083,5718476,UTM,-38.654830500000003,143.52918148000001,WGS84,9,420,9,Y,N,1,1955-04-14,,235
235205,ARKINS CREEK WEST BRANCH @ WYELANGTA,ARKINS @ WYELANGTA,343.04500000000002,AHD,4.4299999999999997,54,712640,5720374,UTM,-38.639559220000002,143.44313969000001,WGS84,9,0,1,Y,Y,1,1958-02-13,,235
235209,AIRE RIVER @ BEECH FOREST,AIRE @ BEECH FOREST,0,ARB,21,54,724574,5716833,UTM,-38.668494989999999,143.58127493000001,WGS84,9,297,9,Y,Y,1,1964-03-12,,235
235210,LARDNER CREEK @ GELLIBRAND,LARDNER @ GELLIBRAND,65.248999999999995,AHD,52,54,721780,5731882,UTM,-38.533712700000002,143.54439882,WGS84,9,0,1,Y,N,1,1964-06-18,,235
235211,KENNEDYS CREEK @ KENNEDYS CREEK,KENNEDYS @ KENNEDYS,0,ARB,268,54,696535,5726391,UTM,-38.589093949999999,143.25654019999999,WGS84,9,0,1,Y,Y,1,1964-06-17,,235
235216,CUMBERLAND RIVER @ LORNE,CUMBERLAND @ LORNE,0,ARB,38,54,756757,5726523,UTM,-38.572541319999999,143.94718864000001,WGS84,9,0,1,Y,Y,1,1966-05-01,,235
235219,AIRE RIVER @ WYELANGTA,AIRE @ WYELANGTA,0,ARB,90,54,715422,5713234,UTM,-38.7031718,143.47729189,WGS84,9,0,1,Y,N,1,1967-03-29,,235
235222,SALT CREEK @ ALCOA,ANGLESEA @ ANGLESEA,0,ARB,52,55,253472,5747581,MGA94,-38.386024853085488,144.17748145464964,GDA94,1,0,1,N,N,1,1967-06-08,,235
235224,GELLIBRAND RIVER @ BURRUPA,GELLIBRAND @ BURRUPA,1.0980000000000001,AHD,1046,54,695504,5713931,UTM,-38.701522969999999,143.24821610000001,WGS84,9,0,1,Y,Y,1,1969-03-20,,235
235225,GELLIBRAND RIVER @ CARLISLE RIVER (PUMPING STATION),GELLIBRAND @CARLIS.P,0,,495,54,706301.98999999999,5729478.9460000005,,-38.559074000000003,143.367681,WGS84,1,0,1,N,N,1,1969-12-01,,235
235227,GELLIBRAND RIVER @ BUNKERS HILL,GELLIBRAND @ BUNKERS,49.783000000000001,AHD,311,54,716447.56599999999,5733095.4979999997,UTM,-38.524099999999997,143.4829,WGS84,9,0,1,Y,Y,1,1970-03-10,,235
235232,PAINKALAC CREEK @ PAINKALAC CREEK DAM,PAINKALAC CREEK DAM,18.577999999999999,AHD,36,55,244326,5741054,UTM,-38.442070780000002,144.07053536000001,WGS84,9,0,1,Y,N,1,1974-03-26,,235
235233,BARHAM RIVER EAST BRANCH @ APOLLO BAY PARADISE,BARHAM EAST @ APOLLO,0,ARB,43,54,728101,5707121,UTM,-38.755023960000003,143.62497304999999,WGS84,9,0,1,Y,N,1,1977-10-12,,235
235234,LOVE CREEK @ GELLIBRAND,LOVE @ GELLIBRAND,90.924000000000007,AHD,75,54,724325,5737426,UTM,-38.483162249999999,143.57179241,WGS84,9,0,1,Y,Y,1,1979-05-02,,235
235237,SCOTTS CREEK @ CURDIE (DIGNEYS BRIDGE),SCOTTS @ CURDIE,6.827,AHD,361,54,673554,5742621,UTM,-38.44770604,142.98881080000001,WGS84,9,0,1,Y,Y,1,1982-04-27,,235
235249,WEST GELLIBRAND RESERVOIR @ SPILLWAY,W GELLIBRAND SPILL'Y,339.99900000000002,AHD,0,54,731067,5724368,UTM,-38.598993139999997,143.65332942000001,WGS84,9,0,0,Y,N,1,1999-06-21,,235
235250,OLANGOLAH WEIR @ SPILLWAY,OLANGOLAH WEIR,0,GAU,0,54,733535,5722851,UTM,-38.612003469999998,143.68214932999999,WGS84,9,0,0,Y,N,1,1999-06-22,,235
235255,THOMPSON CREEK @ GHAZEEPORE,THOMPSON C GHAZEEPOR,0,ARB,184,55,263241,5760738,UTM,-38.270087940000003,144.29363577000001,WGS84,9,0,1,Y,N,1,1994-07-26,,235
235256,ST. GEORGE RIVER @ ALLENVALE RESERVOIR (H.G.),ALLENVALE RES H.G.,0,AHD,0,54,756682,5730371,UTM,-38.537930690000003,143.94491432000001,WGS84,9,0,0,Y,N,1,1999-03-26,,235
235257,PAINKALAC CREEK @ U/S PAINKALAC DAM,PAINKALAC DAM,0,GAU,0,55,242163,5741639,UTM,-38.436183679999999,144.04599725,WGS84,9,0,0,Y,N,1,1999-03-25,,235
235258,GELLIBRAND RIVER D/S SOUTH OTWAY PUMPS BRIDGE,GELLIBRAND R OTWAY,0,GAU,0,54,697075,5721317,ANG,-38.634665009999999,143.26417219999999,AGD66,1,0,1,N,N,1,1998-01-08,,235
235260,ANGLESEA RIVER (MARSHY CREEK) @ ALCOA,,,,,55,253092,5747162,MGA94,-38.389691602862236,144.17298876353473,GDA94,,0,,N,N,1,,,235
235264,PAIKALAC CREEK @ PAINKALAC RES. H.G.,PAINKALAC RES HG,0,AHD,0,55,244038,5740993,UTM,-38.442537289999997,144.06721726999999,WGS84,9,0,0,Y,N,1,2003-12-10,,235
235265,MARINGO BASIN @ MARINGO RES. H.G.,MARINGO BASIN H.G.,0,,0,54,730692,5704358,UTM,-38.77922324,143.65568309,WGS84,9,0,1,Y,N,1,2002-05-01,,235
235266,GELLIBRAND RIVER D/S WEST GELLIBRAND DAM,GELLIBRAND R D/S DAM,0,ARB,0,54,731200,5725047,UTM,-38.592845990000001,143.65462984000001,WGS84,9,0,0,Y,N,1,2004-09-30,,235
235267,OLANGOLAH CREEK D/S OLANGOLAH RESERVOIR,OLANGOLAH C D/S RES.,0,ARB,0,54,733398,5723139,UTM,-38.609446929999997,143.68048095,WGS84,9,0,1,Y,N,1,2004-09-30,,235
235268,CURDIES RIVER @ PETERBOROUGH,CURDIES @ PETERB'RGH,0,ARB,0,54,662313,5729965,UTM,-38.563818089999998,142.86299735,WGS84,9,5,9,Y,N,1,2008-10-03,,235
235269,GELLIBRAND RIVER @ PRINCETOWN,GELLIBRAND @ PRNCTWN,0,AHD,0,54,687424,5714665,UTM,-38.69666221,143.15516328999999,WGS84,9,3,9,Y,N,1,2008-11-01,,235
235270,UPPER ANGLESEA RIVER (V-NOTCH) @ AARC,,,,,55,247044,5753546,MGA94,-38.330540567909956,144.10611246960991,GDA94,,0,,N,N,1,,,235
235271,UPPER ANGLESEA RIVER (POOL) @ AARC,,,,,55,246682,5753606,MGA94,-38.329898291133489,144.10199750897539,GDA94,,0,,N,N,1,,,235
235272,ANGLESEA WETLANDS @ ALLARDYLE TRACK,,,,,55,253041,5748034,MGA94,-38.381828383814685,144.17271131962605,GDA94,,0,,N,N,1,,,235
235273,BREAKFAST CREEK @ BRIDGE ON BREAKFAST CREEK ROAD,,,,,55,243434,5747656,MGA94,-38.382527499364492,144.06271994491391,GDA94,,0,,N,N,1,,,235
235274,BREAKFAST CREEK TRIBUTARY @ V-NOTCH,,,,,55,242895,5748151,MGA94,-38.377917585447726,144.05673744624872,GDA94,,0,,N,N,1,,,235
235275,SALT CREEK (POOL) ABOVE SWAMP @ DENHAM TRACK,,,,,55,245571,5746837,MGA94,-38.390509249696109,144.0868599414018,GDA94,,0,,N,N,1,,,235
235276,SALT CREEK @ DENHAMS TRACK,,,,,55,245536,5746838,MGA94,-38.390490292945124,144.08646004221941,GDA94,,0,,N,N,1,,,235
235277,ANGLESEA RIVER @ GUMFLATS ROAD,,,,,55,250783,5751988,MGA94,-38.345611773293818,144.14828820238904,GDA94,,0,,N,N,1,,,235
235278,ANGLESEA RIVER @ GREAT OCEAN ROAD BRIDGE,ANGLESEA R GR OCEAN,,,,55,254291,5745475,UTM,-38.405074089999999,144.1861279,GDA94,,0,,Y,N,1,2011-10-14,,235
235279,APOLLO BAY BASIN,APOLLO BAY BASIN,,,,54,730560.30000000005,5705922.9000000004,UTM,-38.76517046,143.6536462,GDA94,,0,,N,N,1,2014-05-19,,235
235280,ANGLESEA SWAMP @ VEGETATION SITE P7 TRANSECT,,,,,55,252903,5750702,MGA94,-38.357774750094713,144.17206873051441,GDA94,,0,,N,N,1,,,235
235600,LAKE PURRUMBETE @ CAMPERDOWN,LAKE PURRUMBETE,15,ARB,0,54,694176.65700000001,5759379.4850000003,UTM,-38.292538999999998,143.220358,WGS84,9,0,1,Y,N,1,1965-07-22,,235
235801,RAIN GAUGE @ AV2,,,,,55,253085,5747168,MGA94,-38.389635662775866,144.17291081061555,GDA94,,0,,N,N,1,,,235
235805,RAIN GAUGE @ AARC,,,,,55,246908,5752852,MGA94,-38.336748770064787,144.1043096316919,GDA94,,0,,N,N,1,,,235
235806,RAIN GAUGE @ BREAKFAST CREEK,,,,,55,243333,5747488,MGA94,-38.384010604622169,144.06150383182731,GDA94,,0,,N,N,1,,,235
236202,HOPKINS RIVER @ WICKLIFFE,HOPKINS @ WICKLIFFE,197.62299999999999,AHD,1347,54,652038,5826564,UTM,-37.69542079,142.72451190000001,WGS84,9,0,1,Y,N,1,1920-06-10,,236
236203,MOUNT EMU CREEK @ SKIPTON,MOUNT EMU @ SKIPTON,270.48000000000002,,1251,54,708099,5826199,UTM,-37.687698560000001,143.36006737,WGS84,9,0,1,Y,N,1,1920-06-15,,236
236204,FIERY CREEK @ STREATHAM,FIERY @ STREATHAM,236.221,AHD,956,54,682157.64399999997,5827608.8169999998,UTM,-37.680520000000001,143.06569999999999,WGS84,9,0,1,Y,N,1,1920-06-04,,236
236205,MERRI RIVER @ WOODFORD,MERRI @ WOODFORD,0,GAU,899,54,629661,5757969,UTM,-38.316882579999998,142.48307969999999,WGS84,9,12,9,Y,Y,1,1948-08-01,,236
236209,HOPKINS RIVER @ HOPKINS FALLS,HOPKINS @ HOPKINS F.,0,ARB,8355,54,642039,5755706,UTM,-38.335437319999997,142.6251911,WGS84,9,0,1,Y,Y,1,1955-05-23,,236
236210,HOPKINS RIVER @ FRAMLINGHAM,HOPKINS @FRAMLINGHAM,0,ARB,5157,54,649033,5765747,UTM,-38.243794219999998,142.7030202,WGS84,9,0,1,Y,N,1,1955-06-10,,236
236212,BRUCKNELL CREEK @ CUDGEE,BRUCKNELL @ CUDGEE,14.146000000000001,AHD,223,54,644355,5754492,UTM,-38.345967709999996,142.65191626999999,WGS84,9,0,1,Y,N,1,1965-06-04,,236
236213,MOUNT EMU CREEK @ MENA PARK,MOUNT EMU @MENA PARK,0,AHD,452,54,717827.35600000003,5843415.8870000001,UTM,-37.5304,143.46518,WGS84,9,0,1,Y,N,1,1966-12-14,,236
236215,BURRUMBEET CREEK @ LAKE BURRUMBEET,BURRUMBEET @ LAKE,0,ARB,166,54,736437.94499999995,5843559.9800000004,UTM,-37.524520000000003,143.67554999999999,WGS84,9,0,1,N,Y,1,1975-12-03,,236
236216,MOUNT EMU CREEK @ TAROON (AYRFORD ROAD BRIDGE),MOUNT EMU @ TAROON,93.358000000000004,AHD,2877,54,664494,5758581,UTM,-38.305592150000003,142.8812902,WGS84,9,0,1,Y,Y,1,1977-10-10,,236
236219,HOPKINS RIVER @ ARARAT,HOPKINS R @ ARARAT,0,ARB,258,54,672030.89199999999,5868315.5300000003,UTM,-37.315772000000003,142.94140300000001,WGS84,9,0,1,Y,N,1,1989-05-31,,236
236228,MUSICAL GULLY CREEK @ MUSICAL GULLY RESERVOIR H.G.,MUSICAL GULLY RES.,,,,54,710646,5860529,UTM,-37.37794925,143.3790836,WGS84,9,445,9,N,N,1,2009-06-25,,236
236230,LONG GULLY CREEK @ THE GLUT,LONG GULLY CK @ GLUT,,,,54,700465,5869999,ANG,-37.29491136,143.26162099999999,AGD66,1,0,1,N,N,1,2000-05-30,,236
236231,CAVE HILL CREEK @ MOUNT COLE,CAVE HILL CK MT COLE,,,,54,701225.40099999995,5868941.7120000003,ANG,-37.304270000000002,143.27047999999999,WGS84,1,0,1,N,N,1,2000-05-30,,236
236232,SIDESPRING CREEK @ MT COLE,SIDESPRING CK,,,,54,701045,5870384,MGA94,-37.291318529999998,143.26805569999999,GDA94,1,0,1,N,N,1,2007-11-26,,236
236238,MT EMU CREEK @ GUTHRIES BRIDGE,MT EMU @ GUTHRIES B,,,,54,719053.35900000005,5830630.8169999998,MGA94,-37.64537,143.48287999999999,GDA94,,0,,,NUL,1,2018-06-05,,236
236600,LAKE BOLAC @ LAKE BOLAC,LAKE BOLAC,0,ARB,0,54,664276,5820577,UTM,-37.747243439999998,142.86461009999999,WGS84,9,0,1,Y,N,1,1962-11-06,,236
236602,LAKE BURRUMBEET @ BURRUMBEET,LAKE BURRUMBEET,0,AHD,0,54,735938.34999999998,5847338.1440000003,ANG,-37.490630000000003,143.66869,WGS84,1,0,1,n,Y,1,1965-06-28,,236
236603,LAKE GOLDSMITH @ BEAUFORT,LAKE GOLDSMITH @ BEA,340.26999999999998,AHD,0,54,708565,5840451,UTM,-37.55924263,143.36128260000001,WGS84,9,0,1,Y,N,1,1965-07-19,,236
236606,LAKE BUNINJON @ CALVERT,LAKE BUNINJON @ CALV,0,,0,54,658600.47699999996,5850365.4720000001,UTM,-37.479880000000001,142.79375999999999,WGS84,9,0,1,N,Y,1,1991-06-26,,236
236610,CHINAMAN SWAMP @ WESTMERE,CHINAMAN SWAMP @ WES,0,ARB,0,54,677153.56099999999,5826519.7759999996,UTM,-37.691310000000001,143.00925000000001,WGS84,9,0,1,Y,N,1,1995-10-04,,236
236611,MYUNA LANE SWAMP @ WOORNDOO,MYUNA LANE SWAMP @ W,0,ARB,0,54,655284,5813221,UTM,-37.815083340000001,142.7641672,WGS84,9,0,1,N,Y,1,1899-12-30,,236
237200,MOYNE RIVER @ TOOLONG,MOYNE @ TOOLONG,0,ARB,570,54,607213,5757970,UTM,-38.319910569999998,142.2264285,WGS84,9,0,1,Y,Y,1,1948-06-02,,237
237202,FITZROY RIVER @ HEYWOOD,FITZROY @ HEYWOOD,23.82,AHD,234,54,554340.19999999995,5780019.2999999998,UTM,-38.125904159999997,141.61998401,WGS84,9,0,1,Y,N,1,1948-07-29,,237
237205,DARLOT CREEK @ HOMERTON BRIDGE,DARLOT @ HOMERTON,20.370000000000001,AHD,760,54,567428.80000000005,5777200,UTM,-38.150427999999998,141.76957200000001,WGS84,9,0,1,Y,N,1,1963-01-10,,237
237206,EUMERALLA RIVER @ CODRINGTON,EUMERALLA @ CODRINGT,9.9619999999999997,AHD,502,54,582617,5765175,UTM,-38.25747149,141.94436289999999,WGS84,9,0,1,Y,N,1,1964-02-27,,237
237207,SURRY RIVER @ HEATHMERE,SURRY @ HEATHMERE,1.9830000000000001,AHD,310,54,558037,5766952,UTM,-38.243436469999999,141.66321490000001,WGS84,9,0,1,Y,Y,1,1970-04-20,,237
238202,GLENELG RIVER @ SANDFORD,GLENELG @ SANDFORD,32.798999999999999,AHD,9420,54,537881,5836356,UTM,-37.619030010000003,141.42908729999999,WGS84,9,0,1,Y,Y,1,1889-04-01,,238
238204,WANNON RIVER @ DUNKELD,WANNON @ DUNKELD,219.73400000000001,AHD,671,54,617891.75300000003,5834262.3099999996,UTM,-37.631079999999997,142.33607000000001,WGS84,9,0,1,Y,Y,1,1920-06-09,,238
238205,GLENELG RIVER @ ROCKLANDS RESERVOIR,GLENELG @ ROCKLANDS,0,AHD,1355,54,584600,5878461,UTM,-37.236409600000002,141.9537631,WGS84,9,0,1,Y,N,1,1941-03-21,,238
238206,GLENELG RIVER @ DARTMOOR,GLENELG R DARTMOOR,0,GAU,11914,54,524714.5,5802486.4000000004,UTM,-37.924712190000001,141.28120634999999,WGS84,9,0,0,Y,Y,1,1948-06-01,,238
238207,WANNON RIVER @ JIMMY CREEK,WANNON @ JIMMY,300.423,AHD,40,54,633083.98699999996,5862845.0310000004,UTM,-37.371459999999999,142.50301999999999,WGS84,9,0,1,Y,N,1,1950-01-26,,238
238208,JIMMY CREEK @ JIMMY CREEK,JIMMY @ JIMMY,308.21699999999998,ARB,23,54,633549.11800000002,5862686.6789999995,UTM,-37.372819999999997,142.50829999999999,WGS84,9,0,1,Y,Y,1,1950-01-25,,238
238210,GLENELG RIVER @ HARROW,GLENELG HARROW B EC,0,,0,54,552365.99300000002,5886006.0149999997,UTM,-37.170771000000002,141.58985699999999,WGS84,9,0,1,Y,N,1,1957-08-01,,238
238211,GLENELG RIVER @ DERGHOLM,GLENELG R @ DERGHOLM,0,ARB,0,54,521490,5864410,UTM,-37.366710269999999,141.2427515,WGS84,9,0,1,Y,N,1,1957-05-01,,238
238212,GLENELG RIVER @ CASTERTON,GLENELG @ CASTERTON,38.453000000000003,AHD,4810,54,536100,5840417,UTM,-37.582425919999999,141.40894370000001,WGS84,9,0,1,N,Y,1,1956-08-29,,238
238218,WANNON RIVER @ WANNON FALLS,WANNON @ WANNON FALL,119.10599999999999,AHD,2243,54,574137,5830011,UTM,-37.673967869999998,141.84069160000001,WGS84,9,0,1,Y,N,1,1963-07-09,,238
238219,GRANGE BURN @ MORGIANA,GRANGE @ MORGIANA,74.415000000000006,AHD,997,54,573385,5826157,UTM,-37.70876208,141.83255320999999,WGS84,9,0,1,Y,N,1,1963-07-08,,238
238220,DUNDAS RIVER @ CAVENDISH,DUNDAS @ CAVENDISH,195.60900000000001,AHD,211,54,588684,5846372,UTM,-37.525301919999997,142.00365840000001,WGS84,9,0,1,Y,N,1,1963-07-11,,238
238223,WANDO RIVER @ WANDO VALE,WANDO @ WANDO VALE,64.488,AHD,174,54,537665,5849998,UTM,-37.495953219999997,141.42596119999999,WGS84,9,0,1,Y,Y,1,1964-04-15,,238
238224,GLENELG R @ FULHAM BRIDGE,GLENELG R FULHAM BR,0,,2010,54,575506.005,5888371,UTM,-37.147871000000002,141.85024799999999,WGS84,9,0,1,Y,Y,1,1964-03-06,,238
238228,WANNON RIVER @ HENTY,WANNON @ HENTY,44.798999999999999,AHD,4159,54,544605,5833425,UTM,-37.645127000000002,141.50561479999999,WGS84,9,0,1,Y,Y,1,1967-02-27,,238
238229,CHETWYND RIVER @ CHETWYND,CHETWYND @ CHETWYND,0,ARB,69,54,542610,5869362,UTM,-37.321463289999997,141.48074120000001,WGS84,9,0,1,Y,N,1,1967-03-30,,238
238230,STOKES RIVER @ TEAKETTLE,STOKES @ TEAKETTLE,51.993000000000002,AHD,181,54,536058,5808553,UTM,-37.86967405,141.40995770000001,WGS84,9,0,1,Y,N,1,1966-06-27,,238
238231,GLENELG RIVER @ BIG CORD,GLENELG @ BIG CORD,243.268,AHD,57,54,621153.20700000005,5869594.9440000001,UTM,-37.312269999999998,142.36721,WGS84,9,0,1,Y,Y,1,1968-04-23,,238
238235,CRAWFORD RIVER @ LOWER CRAWFORD,CRAWFORD @ CRAWFORD,0,ARB,606,54,539946,5796301,UTM,-37.980071410000001,141.4546374,WGS84,9,0,1,Y,N,1,1970-05-25,,238
238236,GLENELG RIVER @ ROCKLANDS RESERVOIR (HEAD GAUGE),GLENELG @ ROCKLANDS,0.82599999999999996,AHD,1355,54,585066.69999999995,5878668.2000000002,MGA94,-37.234499999999997,141.959,GDA94,1,0,1,N,n,1,1947-04-02,,238
238237,MOORA MOORA CREEK @ MOORA MOORA RESERVOIR (H. GAUGE),MOORA MOORA CREEK,0,AHD,0,54,625143.57499999995,5879694.6770000001,UTM,-37.220730000000003,142.41052999999999,WGS84,9,0,1,Y,Y,1,1934-01-01,,238
238249,GLENELG RIVER D/S BURKES BRIDGE,GLENELG R D/S BURKES,0,GAU,3375,54,530415,5878653,UTM,-37.23804131,141.34292619999999,WGS84,9,0,0,Y,N,1,2001-05-18,,238
238257,Glenelg River @ Weavers,Glenelg @ Weavers,,,,0,0,0,,0,0,,,0,9,N,N,1,2019-05-31,,238
238600,LAKE LINLITHGOW @ PENHURST,L. LINLITHGOW,189.893,AHD,0,54,606932,5819246,UTM,-37.76773756,142.2140948,WGS84,9,0,1,Y,Y,1,1964-03-26,,238
238601,BRADY SWAMP @ GLENTHOMPSON,BRADY SWAMP @ GLENTH,0,ARB,0,54,628226,5836783,UTM,-37.606983030000002,142.45271299999999,WGS84,9,0,1,Y,N,1,1964-03-25,,238
238604,BRYANS SWAMP @ VICTORIA VALLEY,BRYANS SWAMP @ VICTO,0,ARB,0,54,611287,5840964,UTM,-37.571512920000004,142.26021610000001,WGS84,9,0,1,Y,N,1,1995-10-04,,238
238700,ROCKLANDS CHANNEL @ ROCKLANDS RESERVOIR,ROCKLANDS CHANNEL,0,ARB,0,54,584965,5878695,UTM,-37.2342674,141.95785079999999,WGS84,9,0,1,Y,N,1,1951-01-01,,238
238702,MOORA OUTLET CHANNEL @ MOORA RESERVOIR,MOORA OUTLET CHANNEL,0,AHD,0,54,625032.47999999998,5879147.0219999999,UTM,-37.225679999999997,142.40937,WGS84,9,0,1,Y,N,1,1966-01-01,,238
238707,ROCKLANDS CHANNEL @ TOOLONDO LAKE INLET,ROCKLANDS @ TOOLONDO,0,ARB,0,54,583707,5905630,UTM,-36.991616,141.9406626,WGS84,9,0,1,Y,N,1,1992-03-05,,238
238711,ROCKLANDS CHANNEL OUTFALL @ MT TALBOT CREEK,ROCKLANDS CH O/FALL,0,ARB,0,54,587322,5901105,UTM,-37.032071219999999,141.9818056,WGS84,9,0,1,Y,N,1,1994-07-05,,238
238716,MOORA CHANNEL @ BRIMPAEN,MOORA CH AT BRIMPAEN,0,ARB,0,54,610600.24300000002,5892848.0800000001,UTM,-37.104030000000002,142.24469999999999,WGS84,9,0,1,Y,N,1,2007-06-08,,238
238720,Moora Channel @ Brimpean - Laharum Rd,Moora Ch @ Brimpean,,,,54,612621.40939049062,5900260.249260772,,-37.036990000000003,142.26633000000001,,,0,,N,N,1,2019-11-01,2021-10-01 00:00:00.000,238
238802,WEATHER STATION @ ROCKLANDS RESERVOIR,ROCKLANDS RES W.S.,,,,54,585114,5878756,UTM,-37.233704029999998,141.95952338000001,GDA94,,0,,Y,N,1,2009-03-26,,238
239201,LAKE CHARLEGRARK (HEAD GAUGE) @ BOOROOPKI,LAKE CHARLEGRARK (HE,0,AHD,0,54,521120,5931005,UTM,-36.766362909999998,141.23664410000001,WGS84,9,0,1,Y,N,1,1977-05-15,,239
401201,MURRAY RIVER @ JINGELLIC,MURRAY @ JINGELLIC,206.52000000000001,AHD,6527,55,564182.03500000003,6023411.0269999998,,-35.931413999999997,147.7115,WGS84,1,0,1,Y,Y,1,1890-05-01,,401
401202,MITTA MITTA RIVER @ MITTA MITTA,MITTA @ MITTA MITTA,0,AHD,3786,55,533685,5956800,UTM,-36.533473950000001,147.3761623,WGS84,9,0,1,Y,N,1,1917-11-25,,401
401203,MITTA MITTA RIVER @ HINNOMUNJIE,MITTA @ HINNOMUNJIE,538.38599999999997,AHD,1533,55,553931,5910937,UTM,-36.94595897,147.6056955,WGS84,9,556,1,Y,Y,1,1925-06-17,,401
401204,MITTA MITTA RIVER @ TALLANDOON,MITTA @ TALLANDOON,216.893,AHD,4716,55,520728,5970808,UTM,-36.407522319999998,147.23122380000001,WGS84,9,0,1,Y,Y,1,1934-07-01,,401
401208,CUDGEWA CREEK @ BERRINGAMA,CUDGEWA @ BERRINGAMA,366.24900000000002,AHD,350,55,560930,5992314,UTM,-36.211877829999999,147.67774069999999,WGS84,9,0,1,Y,N,1,1953-04-15,,401
401210,SNOWY CREEK @ BELOW GRANITE FLAT,SNOWY @ GRANITE FLAT,309.97699999999998,AHD,407,55,536981,5952908,UTM,-36.568527330000002,147.4133807,WGS84,9,0,1,Y,N,1,1932-10-10,,401
401211,MITTA MITTA RIVER @ COLEMANS,MITTA @ COLEMANS,290.77699999999999,AHD,3634,55,540881,5957029,UTM,-36.53122801,147.45655769999999,WGS84,9,0,1,Y,Y,1,1931-02-21,,401
401212,NARIEL CREEK @ UPPER NARIEL,NARIEL @UPPER NARIEL,494.09699999999998,AHD,252,55,574333,5966348,UTM,-36.445000120000003,147.82949289999999,WGS84,9,0,1,Y,Y,1,1954-04-13,,401
401215,MORASS CREEK @ UPLANDS,MORASS CK @ UPLANDS,672.97799999999995,AHD,471,55,562706,5919723,UTM,-36.866219710000003,147.7035132,WGS84,9,705,1,Y,Y,1,1929-10-18,,401
401216,BIG RIVER @ JOKERS CREEK,BIG R @ JOKERS CREEK,683.56399999999996,AHD,356,55,542051,5912473,UTM,-36.932718710000003,147.47219129999999,WGS84,9,720,1,Y,Y,1,1934-08-29,,401
401217,GIBBO RIVER @ GIBBO PARK,GIBBO @ GIBBO PARK,490.07999999999998,AHD,389,55,563310,5931879,UTM,-36.75660534,147.70927750000001,WGS84,9,518,1,Y,N,1,1971-07-26,,401
401220,TALLANGATTA CREEK @ McCALLUMS,TALLANGATTA MCALLUMS,209.92500000000001,AHD,464,55,530132,5992330,UTM,-36.213291290000001,147.3352514,WGS84,9,0,1,Y,N,1,1975-06-10,,401
401222,MITTA MITTA RIVER @ BOWLERS LANE,MITTA @ BOWLERS LANE,0,AHD,4328,55,529816,5964124,UTM,-36.467576170000001,147.3327936,WGS84,9,0,1,Y,N,1,1977-10-20,,401
401223,MITTA MITTA RIVER @ ESKDALE BRIDGE,MITTA @ ESKDALE BR.,0,AHD,4374,55,523964,5965721,UTM,-36.453334269999999,147.26742730000001,WGS84,9,0,1,Y,N,1,1977-10-18,,401
401224,MITTA MITTA RIVER @ LAKE DARTMOUTH (HEAD GAUGE),MITTA @ DART. HEAD,0,AHD,3561,55,547396,5954114,UTM,-36.55709641,147.52962242999999,WGS84,9,451,1,Y,Y,1,1977-11-07,,401
401226,VICTORIA RIVER @ VICTORIA FALLS,VICTORIA @ V. FALLS,0,ARB,180,55,540698,5895250,UTM,-37.088027869999998,147.45792929999999,WGS84,9,962,1,Y,Y,1,1989-05-02,,401
401228,BUTCHER CREEK @ OMEO,BUTCHER @ OMEO,0,ARB,22,55,546150,5883554,UTM,-37.193200689999998,147.51999358,WGS84,1,0,1,N,N,1,1991-06-04,,401
401229,CUDGEWA CREEK @ CUDGEWA NORTH,CUDGEWA @CUDGEWA NTH,241.82599999999999,AHD,837,55,579163,6008414,UTM,-36.065510930000002,147.87905713000001,WGS84,9,0,1,Y,N,1,1993-08-18,,401
401230,CORRYONG CREEK @ TOWONG,CORRYONG @ TOWONG,243.477,AHD,976,55,587516,6003786,UTM,-36.10647676,147.9724472,WGS84,9,0,1,Y,N,1,1993-08-17,,401
401231,SNOWY CREEK @ D/S LIGHTNING CK,SNOWY DS LIGHTNING,0,ARB,105,55,538721,5942665,UTM,-36.66066154,147.43317440000001,WGS84,9,0,1,Y,N,1,1993-04-21,,401
401233,MITTA MITTA R @ SURGE DAM NO 1 DARTMOUTH,MITTA MITTA R DAM 1,318.00200000000001,AHD,0,55,544740,5954667,UTM,-36.552239399999998,147.49991213000001,WGS84,9,0,0,Y,N,1,2001-01-30,,401
401824,RAINGAUGE (MORASS CK) @ UPLANDS,RG MORASS CK UPLANDS,0,,0,55,562517,5919515,UTM,-36.868107139999999,147.70141000000001,WGS84,9,690,9,Y,N,1,2006-07-21,,401
401825,RAIN GAUGE (NARIEL CK) @ UPPER NARIEL,R.G. NARIEL CK,0,,0,55,574192,5965869,UTM,-36.449428509999997,147.82789973000001,WGS84,9,528,9,Y,N,1,2008-04-17,,401
402200,KIEWA RIVER @ KIEWA (COMBINED FLOW),KIEWA @ KIEWA,171.21899999999999,AHD,1145,55,501811.09999999998,5987867.7999999998,MGA94,-36.253970000000002,147.02016,GDA94,1,0,1,Y,N,1,1885-07-01,,402
402203,KIEWA RIVER @ MONGANS BRIDGE,KIEWA @ MONGANS BR,256.81200000000001,AHD,552,55,508971,5950005,UTM,-36.595372380000001,147.10036260000001,WGS84,9,263,1,Y,Y,1,1955-04-29,,402
402204,YACKANDANDAH CREEK @ OSBORNES FLAT,YACKANDANDAH OSBORNE,210.839,AHD,255,55,491635,5982251,UTM,-36.30457397,146.9068279,WGS84,9,0,1,Y,Y,1,1964-11-01,,402
402205,KIEWA RIVER @ BANDIANA,KIEWA @ BANDIANA,153.22900000000001,AHD,1655,55,495866,6000768,UTM,-36.137705099999998,146.9541519,WGS84,9,161,9,Y,Y,1,1965-10-19,,402
402206,RUNNING CREEK @ RUNNING CREEK,RUNNING @ RUNNING,246.364,AHD,126,55,503957,5956216,UTM,-36.539314769999997,147.04420719999999,WGS84,9,0,1,Y,N,1,1966-04-14,,402
402213,KINCHINGTON CREEK @ OSBORNES FLAT,KINCHINGTON @ OSBORN,221.45500000000001,AHD,122,55,490502,5980963,UTM,-36.316175340000001,146.89419254000001,WGS84,9,0,1,Y,N,1,1969-04-17,,402
402220,KIEWA RIVER @ KIEWA (ANABRANCH),KIEWA @ KIEWA (ANA),170.60400000000001,AHD,1145,55,501344,5987716,UTM,-36.255339679999999,147.0149605,WGS84,9,0,1,Y,N,1,1937-01-01,,402
402222,KIEWA RIVER @ KIEWA (MAIN STREAM),KIEWA @ KIEWA MAIN,170.21899999999999,AHD,1145,55,501841,5987915,UTM,-36.253544769999998,147.0204923,WGS84,9,0,1,Y,Y,1,1937-01-01,,402
402223,KIEWA RIVER WEST BRANCH @ U/S OF OFFTAKE,KIEWA WEST @ OFFTAKE,0,ARB,100.5,55,514278,5928248,UTM,-36.791344209999998,147.16003325,WGS84,9,0,1,Y,Y,1,1991-05-01,,402
403200,OVENS RIVER @ WANGARATTA,OVENS @ WANGARATTA,130.42599999999999,AHD,5138,55,439072,5976940,UTM,-36.350660810000001,146.3209358,WGS84,9,144,9,Y,N,1,1885-06-28,,403
403205,OVENS RIVERS @ BRIGHT,OVENS @ BRIGHT,290.70400000000001,AHD,495,55,495759,5935531,UTM,-36.725643660000003,146.95259540000001,WGS84,9,293,9,Y,Y,1,1924-12-10,,403
403209,REEDY CREEK @ WANGARATTA NORTH,REEDY @ WANGARATTA,137.636,AHD,368,55,441170,5979000,UTM,-36.332121919999999,146.34450608,WGS84,9,0,1,Y,N,1,1940-06-01,,403
403210,OVENS RIVER @ MYRTLEFORD,OVENS @ MYRTLEFORD,204.66499999999999,AHD,1240,55,474760,5952641,UTM,-36.571218100000003,146.71790566000001,WGS84,9,210,9,Y,Y,1,1947-10-22,,403
403213,FIFTEEN MILE CREEK @ GRETA SOUTH,15 MILE @ GRETA STH,187.28999999999999,AHD,229,55,432425,5947075,UTM,-36.619457750000002,146.24407213999999,WGS84,9,197,1,Y,Y,1,1958-12-15,,403
403214,HAPPY VALLEY CREEK @ ROSEWHITE,HAPPY @ ROSEWHITE,252.50800000000001,AHD,135,55,483907,5951975,UTM,-36.577465150000002,146.8200664,WGS84,9,236,1,Y,N,1,1961-06-28,,403
403217,ROSE RIVER @ MATONG NORTH,ROSE RV @ MATONG NTH,0,ARB,154,55,462756,5924929,UTM,-36.820638340000002,146.58239694,WGS84,9,0,,Y,Y,1,1962-08-09,,403
403218,DANDONGADALE RIVER @ MATONG NORTH,DANDONGADALE @MATONG,280.43000000000001,AHD,182,55,467107,5926642,UTM,-36.805421529999997,146.63144639999999,WGS84,9,0,1,Y,N,1,1962-08-10,,403
403220,BUFFALO RIVER @ LAKE BUFFALO,BUFFALO @ BUFFALO,237.46600000000001,AHD,1145,55,470391.56,5937054.0159999998,UTM,-36.711606000000003,146.66848100000001,WGS84,9,243,1,Y,N,1,1963-09-25,,403
403221,REEDY CREEK @ WOOLSHED,REEDY @ WOOLSHED,0,ARB,214,55,464196,5981476,UTM,-36.310931969999999,146.60117203999999,WGS84,9,237,1,Y,N,1,1964-11-11,,403
403222,BUFFALO RIVER @ ABBEYARD,BUFFALO @ ABBEYARD,337.81400000000002,AHD,425,55,473289,5914990,UTM,-36.910589350000002,146.70014789999999,WGS84,9,352,9,Y,N,1,1965-06-30,,403
403223,KING RIVER @ DOCKER ROAD BRIDGE,KING @ DOCKER ROAD,155.00399999999999,AHD,1114,55,445330,5958595,UTM,-36.5163133,146.38941646999999,WGS84,9,170,1,Y,Y,1,1966-01-13,,403
403224,HURDLE CREEK @ BOBINAWARRAH,HURDLE @ BOBINAWARRA,165.91900000000001,AHD,158,55,450671,5958971,UTM,-36.513241479999998,146.44914460000001,WGS84,9,167,1,Y,N,1,1966-04-19,,403
403226,BOGGY CREEK @ ANGLESIDE,BOGGY @ ANGLESIDE,178.65100000000001,AHD,108,55,442986,5948596,UTM,-36.606312469999999,146.3624987,WGS84,9,0,1,Y,N,1,1967-02-27,,403
403227,KING RIVER @ CHESHUNT,KING @ CHESHUNT,292.262,AHD,453,55,446338,5923662,UTM,-36.831270320000002,146.3982264,WGS84,9,295,1,Y,N,1,1967-06-27,,403
403228,KING RIVER @ LAKE WILLIAM HOVELL T.G.,WILLIAM HOVELL,371.03300000000002,AHD,332,55,446106,5915032,UTM,-36.909048740000003,146.3950117,WGS84,9,0,1,Y,N,1,1969-06-10,,403
403230,OVENS RIVER @ ROCKY POINT,OVENS @ ROCKY POINT,190.55500000000001,AHD,2984,55,470308,5956822,UTM,-36.533470700000002,146.66830949999999,WGS84,9,208,1,Y,Y,1,1965-06-24,,403
403232,MORSES CREEK @ WANDILIGONG,MORSES @ WANDILIGONG,327.79199999999997,AHD,123,55,498169,5932704,UTM,-36.751289389999997,146.9793761,WGS84,9,339,1,Y,N,1,1972-11-29,,403
403233,BUCKLAND RIVER @ HARRIS LANE,BUCKLAND @ HARRIS,280.05000000000001,AHD,435,55,489467,5936002,UTM,-36.721492920000003,146.88204909999999,WGS84,9,290,9,Y,N,1,1972-05-02,,403
403234,KING RIVER @ LAKE WILLIAM HOVELL (HG),KING @ WILLIAM,0,AHD,332,55,445346,5914541,UTM,-36.913403369999997,146.38635579999999,WGS84,9,444,1,Y,Y,1,1971-04-28,,403
403235,BUFFALO RIVER @ LAKE BUFFALO (HEAD GAUGE),BUFFALO @ BUFFALO,0,AHD,1145,55,469202,5936570,UTM,-36.715931400000002,146.65514247999999,WGS84,9,0,1,Y,Y,1,1965-07-07,,403
403240,KING RIVER @ EDI,KING @ EDI,188.25399999999999,AHD,684,55,448165,5942725,UTM,-36.659532259999999,146.42000831999999,WGS84,9,206,1,Y,N,1,1979-06-15,,403
403241,OVENS RIVER @ PEECHELBA,OVENS @ PEECHELBA,0,AHD,6239,55,431315,5997691,UTM,-36.16297488,146.23634934,WGS84,9,249,9,Y,Y,1,1979-03-08,,403
403242,OVENS RIVER @ WANGARATTA (COMBINED FLOW),OVENS @ WANG.,137.68899999999999,AHD,5552,55,439736.09999999998,5976452.2999999998,,-36.354999999999997,146.3283333,,1,0,1,Y,N,1,1891-01-01,,403
403244,OVENS RIVER @ HARRIETVILLE,OVENS @ HARRIETVILLE,481.60199999999998,AHD,120,55,505562.326,5917970.8859999999,UTM,-36.884079999999997,147.06242,WGS84,9,0,1,Y,Y,1,1987-02-04,,403
403247,BLACK DOG CREEK UPSTREAM OF DUGAYS BRIDGE,BLACK DOG @ DUGAY BR,0,ARB,0,55,438589,6007704,UTM,-36.073195210000002,146.31799844,WGS84,9,249,0,Y,N,1,1998-08-19,,403
403248,INDIGO CREEK @ D/S CREAMERY BRIDGE,INDIGO @ CREAMERY BR,138.88,AHD,0,55,468416,6012728,UTM,-36.02925553,146.6494582,WGS84,9,143,0,Y,N,1,1999-05-28,,403
403249,THREE MILE CREEK D/S YARRAWONGA RD @ WANGARATTA,3 MILE CK WANGARATTA,0,ARB,463,55,437172,5978480,UTM,-36.33656586,146.2998983,WGS84,9,149,0,Y,N,1,2000-05-12,,403
403250,OVENS RIVER @ EUROBIN,OVENS R @ EUROBIN,0,GAU,1082,55,487225,5943668,UTM,-36.65235758,146.85707070000001,WGS84,9,260,9,Y,N,1,2000-07-19,,403
403251,FIFTEEN MILE CREEK @ GLENROWAN,15 MILE CK GLENROWAN,0,GAU,0,55,432467,5963552,UTM,-36.470807180000001,146.24619899999999,WGS84,9,0,0,Y,N,1,2000-07-18,,403
403253,BUCKLAND RIVER @ TWELVE MILE,BUCKLAND R @ 12 MILE,0,GAU,0,55,487468.95500000002,5921195.5769999996,UTM,-36.854944000000003,146.859431,WGS84,9,395,9,Y,N,1,2001-05-18,,403
403254,BUFFALO RIVER D/S ROSE RIVER JUNCTION,BUFFALO R D/S ROSE R,266.75999999999999,AHD,902.5,55,470132,5927807,UTM,-36.794956190000001,146.66521280000001,WGS84,9,288,9,Y,N,1,2001-09-10,,403
403255,FIFTEEN MILE CREEK (THREE MILE) @ SUNSET DRIVE,15 MILE CK SUNSET DV,,,,55,436578,5976906,UTM,-36.35070717,146.29317409999999,WGS84,9,0,0,N,Y,1,2004-04-29,,403
403256,ONE MILE CREEK @ VINCENT ROAD,ONE MILE C VINCENT R,,,,55,439132,5975303,UTM,-36.365322769999999,146.32151060000001,WGS84,9,0,0,N,Y,1,2004-04-29,,403
403258,YARRARBULA CREEK U/S LAKE BUFFALO,YARRARBULA CK,,,,55,472727.29599999997,5931110.6960000005,MGA94,-36.765380559999997,146.69441943999999,GDA94,,0,,N,N,1,2017-04-27,,403
403803,RAIN GAUGE (BLACK RANGE CK) @ TROUT FARM,R.G. BLACK RANGE CK,0,,0,55,458536.01699999999,5932991.0480000004,UTM,-36.747788,146.53551999999999,WGS84,9,440,0,Y,N,1,2000-07-18,,403
403804,RAIN GAUGE (UPPER BOGGY CK) @ MYRRHEE,R.G. UPPER BOGGY CK,0,,0,55,441051,5933805,UTM,-36.739516020000003,146.33969200000001,WGS84,9,356,0,Y,N,1,2000-07-13,,403
403805,RAIN GAUGE (UPPER 15 MILE CK) @ HANDCOCKS,R.G. UPP. 15 MILE CK,0,,0,55,435737,5928213,UTM,-36.789586649999997,146.27973750000001,WGS84,9,0,0,Y,N,1,2000-07-13,,403
404203,BROKEN RIVER @ BENALLA,BROKEN @ BENALLA,164.85900000000001,AHD,1461,55,408697,5954320,UTM,-36.552087499999999,145.97985360000001,WGS84,9,68,1,n,N,1,1955-05-01,,404
404204,BOOSEY CREEK @ TUNGAMAH,BOOSEY @ TUNGAMAH,119.961,AHD,845,55,394885,6001678,UTM,-36.123769019999997,145.83191054,WGS84,9,131,1,Y,N,1,1917-11-27,,404
404207,HOLLAND CREEK @ KELFEERA,HOLLAND @ KELFEERA,180.09399999999999,AHD,451,55,415870,5947834,UTM,-36.611155140000001,146.05920470000001,WGS84,9,0,1,Y,Y,1,1960-05-09,,404
404208,MOONEE CREEK @ LIMA,MOONEE @ LIMA,0,ARB,91,55,408235.81,5931026.7410000004,MGA94,-36.761960000000002,145.97188,WGS84,9,210,9,Y,N,1,1963-01-25,,404
404210,BROKEN CREEK @ RICES WEIR,RICES WEIR SCADA,0,,3033,55,316223.43300000002,6017690.0489999996,ANG,-35.967790000000001,144.96190000000001,WGS84,1,0,1,Y,Y,1,1965-02-04,,404
404214,BROKEN CREEK @ KATAMATITE,BROKEN @ KATAMATITE,112.864,AHD,270,55,381635,6004300,UTM,-36.098538410000003,145.68515379999999,WGS84,9,0,1,Y,Y,1,1966-07-22,,404
404216,BROKEN RIVER @ GOORAMBAT (CASEY WEIR H. GAUGE),BROKEN @ CASEY WEIR,156.91399999999999,AHD,1924,55,405193,5962993,UTM,-36.473534880000003,145.94173929999999,WGS84,9,0,1,Y,Y,1,1888-02-07,,404
404217,BROKEN CREEK (CHANNEL) @ CASEY WEIR (NEAR GOORAMBAT),BROKEN @ CASEY WEIR,156.28899999999999,AHD,0,55,405165.70600000001,5963036.5089999996,UTM,-36.473140000000001,145.94144,WGS84,9,0,1,Y,N,1,1885-01-01,,404
404218,BROKEN RIVER @ LAKE NILLAHCOOTIE (HEAD GAUGE),BROKEN NILLAHCOOTIE,0,AHD,422,55,411674,5920772,UTM,-36.854716070000002,146.0092056,WGS84,9,0,1,Y,Y,1,1967-05-01,,404
404222,BROKEN RIVER @ ORRVALE,BROKEN @ ORRVALE,108.339,AHD,2508,55,361042,5967072,UTM,-36.431388499999997,145.44978330000001,WGS84,9,0,1,Y,N,1,1977-06-23,,404
404224,BROKEN RIVER @ GOWANGARDIE,BROKEN @ GOWANGARDIE,0,,2396,55,380713,5967113,UTM,-36.433666590000001,145.66918150000001,WGS84,9,0,1,Y,Y,1,1928-01-20,,404
404226,BROKEN RIVER @ LAKE MOKOAN DIVERSION WEIR,BROKEN @ MOKOAN,0,,882,55,409044,5947231,UTM,-36.615981720000001,145.98285917000001,WGS84,9,182,1,Y,N,1,1970-09-16,,404
404227,BROKEN RIVER REGULATOR @ BROKEN RIVER BY-PASS CHANNEL,BROKEN REGULATOR,0,,0,55,408856.79999999999,5947266.9000000004,MGA94,-36.615639999999999,145.98077000000001,GDA94,1,0,1,n,N,1,1970-09-16,,404
404234,WHISKEY CREEK U/S MCCALLSAY RESERVOIR,WHISKEY CK U/S MCCAL,0,ARB,0,55,429405,5927824,UTM,-36.792632759999996,146.20868200000001,WGS84,9,478,NOT,Y,N,1,1997-08-20,,404
404235,RYANS CREEK U/S MCCALLSAY RESERVOIR,RYANS CK U/S MCCALL,0,ARB,0,55,430299,5924928,UTM,-36.8188125,146.21849222,WGS84,9,513,1,Y,N,1,1997-10-29,,404
404238,BROKEN CREEK @ WALSH'S BRIDGE,BROKEN C WALSH'S BR,100.962,AHD,0,55,349828.55300000001,6003788.5120000001,UTM,-36.098821999999998,145.33178599999999,WGS84,1,107,1,n,N,1,2009-12-21,,404
404239,BROKEN CREEK @ WAGGARANDALL WEIR,BROKEN CK WAGGARANDA,0,ARB,0,55,395323,5982914,UTM,-36.292950019999999,145.83427090000001,WGS84,9,142,9,Y,N,1,2005-05-25,,404
404241,BROKEN R @ CASEY'S WEIR FISH LADDER,BROKEN R CASEY'S F/L,0,ARB,0,55,405177.09999999998,5962986,UTM,-36.473627780000001,145.94141070000001,WGS84,9,0,1,N,N,1,2005-10-26,,404
404242,BROKEN R @ CASEY'S WEIR COMBINED FLOW,BROKEN R CASEY'S C/F,0,,0,55,405163,5963044,UTM,-36.473072209999998,145.94141071999999,WGS84,9,166,9,Y,N,1,1894-01-01,,404
404243,BROKEN RIVER @ D/S BACK CREEK JUNCTION,BROKEN R D/S BACK C,0,ARB,0,55,411795,5921810,UTM,-36.845371589999999,146.01068330000001,WGS84,9,290,1,Y,N,1,2008-05-28,,404
404245,MT SAMARIA CREEK @ WARNOCK ROAD,MT SAMARIA CK WARNOK,0,ARB,0,55,413350,5929150,UTM,-36.779566969999998,146.02896939999999,GDA94,,0,,N,N,1,2010-04-29,,404
404246,LIMA CREEK D/S MIDLAND HWY SWANPOOL,LIMA CK @ SWANPOOL,0,ARB,180.5,55,410083.815,5935509.7470000004,UTM,-36.721730000000001,145.99311,WGS84,9,0,,N,N,1,2010-04-30,,404
404247,RYANS CREEK U/S LOOMBAH RESERVOIR,RYANS C U/S LOOMBAH,,,,55,430900.96600000001,5934753.6310000001,MGA94,-36.730416669999997,146.2261278,GDA94,,0,NOT,N,N,1,2017-04-26,,404
404248,BROKEN CK AT NUMURKAH,BROKEN CK @ NUMURKAH,,,,55,359798,6004410,MGA94,-36.094836549999997,145.44259819999999,GDA94,,0,,N,N,1,2016-09-08,,404
404250,BROKEN CREEK @ LARISSA ROAD,,,,,55,373373.19439253781,6018695.912403916,MGA94,-35.967939999999999,145.59564,GDA94,GM,0,,N,N,1,,,404
404251,NINE MILE CREEK @ SELLICKS ROAD,,,,,55,363770.77485000214,6000451.3199897613,MGA94,-36.131079999999997,145.48603,GDA94,GM,0,,N,N,1,,,404
404707,MOKOAN CHANNEL @ DROP STRUCTURE RD. 10668.0 M.,MOKOAN @ DROP STRUCT,0,AHD,0,55,413049,5953610,UTM,-36.558857039999999,146.0283613,WGS84,9,0,1,N,N,1,1971-04-01,,404
404708,TATONG PROJECT PIPE EC @ TATONG,TATONG PIPE EC,0,,0.89400000000000002,55,419807,5939265,UTM,-36.688752360000002,146.10237205000001,WGS84,9,0,1,n,N,1,1992-04-29,,404
404713,MUCKATAH MAIN DRAIN U/S NARING HALL ROAD,MUCKATAH U/S NARING,0,ARB,0,55,363969,6008872,UTM,-36.055090120000003,145.4896932,WGS84,9,0,0,Y,Y,1,2003-04-29,,404
404714,MUCKATAH CREEK @ KATAMATITE EAST SCHOOL RD,,,,,55,388271.99513468263,6011900.7870441694,MGA94,-36.031010000000002,145.75988000000001,GDA94,GM,0,,N,N,1,,,404
404809,RAIN GAUGE (BROKEN CREEK) @ GOORAMBAT,,,,,55,401118.11718442169,5970625.8362243585,MGA94,-36.404449999999997,145.89723000000001,GDA94,GM,0,,N,N,1,,,404
404810,RAIN GAUGE (BROKEN CREEK) @ DOOKIE WATER STORAGE,,,,,55,373905.98999999999,5981902.0499999998,MGA94,-36.29963348378967,145.59564998031902,GDA94,GM,0,,N,N,1,,,404
405200,GOULBURN RIVER @ MURCHISON,GOULBURN @ MURCHISON,108.679,AHD,10772,55,340787,5946120,UTM,-36.617034910000001,145.2195882,WGS84,9,0,1,Y,Y,1,1881-06-14,,405
405201,GOULBURN RIVER @ TRAWOOL,GOULBURN @ TRAWOOL,138.93000000000001,AHD,7335,55,340251,5893439,UTM,-37.091611499999999,145.20251339999999,WGS84,9,153,9,Y,Y,1,1908-01-01,,405
405202,GOULBURN RIVER @ SEYMOUR,GOULBURN @ SEYMOUR,130.244,AHD,8601,55,331777,5901234,UTM,-37.019900040000003,145.1089547,WGS84,9,140,9,Y,N,1,1957-12-19,,405
405203,GOULBURN RIVER @ EILDON,GOULBURN @ EILDON,205.72900000000001,AHD,3911,55,401492,5877157,UTM,-37.246795200000001,145.88929350000001,WGS84,9,0,1,Y,Y,1,1916-01-01,,405
405204,GOULBURN RIVER @ SHEPPARTON,GOULBURN SHEPPARTON,100.127,AHD,16125,55,355904,5972715,UTM,-36.379777310000001,145.39353120000001,WGS84,9,0,1,Y,Y,1,1921-06-08,,405
405205,MURRINDINDI RIVER @ MURRINDINDI ABOVE COLWELLS,MURRINDINDI COLWELLS,0,ARB,108,55,372925,5858254,UTM,-37.413672499999997,145.56403510000001,WGS84,9,0,1,Y,Y,1,1939-06-13,,405
405209,ACHERON RIVER @ TAGGERTY,ACHERON @ TAGGERTY,198.17699999999999,AHD,619,55,385937,5869104,UTM,-37.31772866,145.7128865,WGS84,9,204,9,Y,Y,1,1945-12-12,,405
405212,SUNDAY CREEK @ TALLAROOK,SUNDAY @ TALLAROOK,153.999,AHD,337,55,327258,5892368,UTM,-37.098954620000001,145.05614410000001,WGS84,9,165,9,Y,Y,1,1945-11-21,,405
405214,DELATITE RIVER @ TONGA BRIDGE,DELATITE @ TONGA,312.76400000000001,AHD,368,55,421247,5887199,UTM,-37.158292770000003,146.11309030000001,WGS84,9,332,9,Y,Y,1,1947-02-06,,405
405215,HOWQUA RIVER @ GLAN ESK,HOWQUA @ GLEN ESK,306.39299999999997,AHD,368,55,429674,5879340,UTM,-37.229673689999998,146.20722653999999,WGS84,9,312,9,Y,Y,1,1947-02-07,,405
405217,YEA RIVER @ DEVLINS BRIDGE,YEA @ DEVLINS,206.75200000000001,AHD,360,55,364820,5861561,UTM,-37.382726750000003,145.4730812,WGS84,9,0,1,Y,N,1,1954-03-26,,405
405218,JAMIESON RIVER @ GERRANG BRIDGE,JAMIESON @ GERRANG,306.52300000000002,AHD,368,55,428012,5872497,UTM,-37.291259529999998,146.18784170000001,WGS84,9,311,1,Y,N,1,1954-07-01,,405
405219,GOULBURN RIVER @ DOHERTYS,GOULBURN @ DOHERTYS,298.435,AHD,694,55,422992,5868052,UTM,-37.330883530000001,146.13073969999999,WGS84,9,308,1,Y,Y,1,1954-08-26,,405
405223,GOULBURN RIVER @ MOLESWORTH,GOULBURN @ MOLESWORT,,,,55,370740,5885855,UTM,-37.164656610000002,145.5441525,WGS84,9,181,9,N,Y,1,1956-10-24,,405
405226,PRANJIP CREEK @ MOORILIM,PRANJIP @ MOORILIM,115.596,AHD,787,55,348630,5945810,UTM,-36.621106359999999,145.3071965,WGS84,9,0,1,Y,N,1,1957-12-10,,405
405227,BIG RIVER @ JAMIESON,BIG @ JAMIESON,296.36099999999999,AHD,619,55,416496,5863930,UTM,-37.367472229999997,146.05695747999999,WGS84,9,306,9,Y,N,1,1958-02-06,,405
405228,HUGHES CREEK @ TARCOMBE ROAD,HUGHES @ TARCOMBE RD,157.85400000000001,AHD,471,55,347180.22100000002,5909163.7240000004,UTM,-36.951082999999997,145.28363899999999,WGS84,9,305,9,Y,N,1,1958-09-16,,405
405229,WANALTA CREEK @ WANALTA,WANALTA @ WANALTA,113.877,AHD,108,55,309643,5943502,UTM,-36.634908760000002,144.870869,WGS84,9,0,1,Y,N,1,1960-05-20,,405
405230,CORNELLA CREEK @ COLBINABBIN,CORNELLA COLBINABBIN,111.443,AHD,259,55,303655,5946783,UTM,-36.604136889999999,144.8047761,WGS84,9,120,1,Y,N,1,1960-05-23,,405
405231,KING PARROT CREEK @ FLOWERDALE,KING PARROT FLOWER'E,258.09199999999998,AHD,181,55,348394,5865238,UTM,-37.347056969999997,145.28836661,WGS84,9,177,9,Y,Y,1,1951-06-25,,405
405232,GOULBURN RIVER @ McCOYS BRIDGE,GOULBURB R MCCOYS BR,91.442999999999998,AHD,16806,55,331204,5994448,UTM,-36.179929600000001,145.12298079999999,WGS84,9,0,,Y,Y,1,1965-08-24,,405
405234,SEVEN CREEKS @ D/S OF POLLY MCQUINN WEIR,SEVEN C MCQUINN WEIR,440.00599999999997,AHD,153,55,382620,5916838,UTM,-36.887007220000001,145.68275299999999,WGS84,9,0,1,Y,Y,1,1965-06-22,,405
405237,SEVEN CREEKS @ EUROA TOWNSHIP,SEVEN CK. @ EUROA,172.89500000000001,AHD,332,55,372053,5934161,UTM,-36.72952128,145.56711428,WGS84,9,160,1,Y,Y,1,1963-05-14,,405
405238,MOLLISON CREEK @ PYALONG,MOLLISON @ PYALONG,247.86699999999999,AHD,163,55,309638,5889623,UTM,-37.120266149999999,144.85729090000001,WGS84,9,0,1,Y,N,1,1966-05-10,,405
405240,SUGARLOAF CREEK @ ASH BRIDGE,SUGARLOAF @ ASH BDG,142.398,AHD,609,55,327071,5896729,UTM,-37.059631570000001,145.0550452,WGS84,9,160,9,Y,Y,1,1966-10-13,,405
405241,RUBICON RIVER @ RUBICON,RUBICON @ RUBICON,0,ARB,129,55,396077,5872257,UTM,-37.290366079999998,145.82756459999999,WGS84,9,0,1,Y,N,1,1922-05-01,,405
405245,FORD CREEK @ MANSFIELD,FORD CK @ MANSFIELD,296.44099999999997,AHD,115,55,415830,5900446,UTM,-37.038317079999999,146.0535892,WGS84,9,299,1,Y,N,1,1970-05-11,,405
405246,CASTLE CREEK @ ARCADIA,CASTLE @ ARCADIA,119.45699999999999,AHD,164,55,352501,5949237,UTM,-36.590831889999997,145.35112789999999,WGS84,9,128,9,Y,Y,1,1970-05-06,,405
405247,STONY CREEK @ TAMLEUGH,STONY @ TAMLEUGH,139.19499999999999,AHD,339,55,377071,5949619,UTM,-36.590872240000003,145.6257751,WGS84,9,0,1,Y,N,1,1970-05-07,,405
405248,MAJOR CREEK @ GRAYTOWN,MAJOR CK @ GRAYTOWN,140.25999999999999,AHD,282,55,314083,5919230,UTM,-36.854447739999998,144.91458950000001,WGS84,9,155,1,Y,N,1,1971-04-19,,405
405251,BRANKEET CREEK @ ANCONA,BRANKEET CK @ ANCONA,311.63299999999998,AHD,121,55,391880,5907886,UTM,-36.968821300000002,145.78545729999999,WGS84,9,317,9,Y,Y,1,1971-05-25,,405
405253,GOULBURN RIVER @ GOULBURN WEIR,GOULBURN @GOUL. WEIR,111.879,AHD,10627,55,336906.87,5935414.3679999998,UTM,-36.71284,145.17393999999999,WGS84,9,0,1,Y,N,1,1967-03-01,,405
405254,TALLANGALLOOK CREEK @ BONNIE DOON,,299.81200000000001,AHD,45,55,400024.79999999999,5903582.5,MGA94,-37.008479999999999,145.87628000000001,WGS84,1,0,,N,Y,1,1967-03-01,,405
405258,GOULBURN RIVER @ LAKE EILDON (HEAD GAUGE),GOULBURN EILDON H.G.,0,AHD,3872,55,405257,5879605,UTM,-37.225123240000002,145.93204940000001,WGS84,9,0,1,Y,Y,1,1922-07-01,,405
405259,GOULBURN RIVER @ GOULBURN WEIR (H.G.),GOULBURN WEIR (H.G.),0,,10627,55,336666,5934889,UTM,-36.717532290000001,145.17113209999999,WGS84,9,0,1,Y,Y,1,1890-06-01,,405
405260,WARANGA BASIN @ HEAD GAUGE,WARANGA @ H. GAUGE,0,,150,55,329070,5957650,UTM,-36.511119780000001,145.09118419999999,WGS84,9,0,1,Y,Y,1,1905-01-01,,405
405264,BIG RIVER @ D/S OF FRENCHMAN CREEK JUNCTION,BIG @ FRENCHMAN,0,ARB,333,55,418355,5847096,UTM,-37.519400150000003,146.07609629999999,WGS84,9,477,1,Y,Y,1,1975-03-20,,405
405269,SEVEN CREEKS @ KIALLA WEST,SEVEN @ KIALLA WEST,106.824,AHD,1505,55,356542,5964189,UTM,-36.456706969999999,145.39906486000001,WGS84,9,0,1,Y,N,1,1977-06-21,,405
405270,GOULBURN RIVER @ KIALLA WEST,GOULBURN @ KIALLA W,101.045,AHD,12038,55,351881,5966093,UTM,-36.438840220000003,145.34743320000001,WGS84,9,122,9,Y,N,1,1977-06-29,,405
405271,GOULBURN RIVER @ SHEPPARTON GOLF CLUB,GOULBURN @ SHEPP,99.971000000000004,AHD,16150,55,353562.47600000002,5974531.2470000004,,-36.363056,145.36777799999999,WGS84,1,0,1,N,N,1,1977-06-08,,405
405274,HOME CREEK @ YARCK,HOME @ YARCK,186.89599999999999,AHD,187,55,376072,5892441,UTM,-37.105955610000002,145.60514620000001,WGS84,9,205,9,Y,N,1,1977-06-09,,405
405276,GOULBURN RIVER @ LOCH GARRY,GOULBURN @ GARRY,96.811000000000007,AHD,16490,55,346071,5987898,UTM,-36.241432969999998,145.28694640000001,WGS84,9,0,1,Y,N,1,1978-02-07,,405
405282,GOULBURN RIVER @ KIRWAN'S BRIDGE,GOULBURN R KIRWAN'S,0,AHD,0,55,333921,5931672,UTM,-36.746041470000002,145.13971129999999,AGD84,9,0,1,Y,N,1,1971-09-23,,405
405287,WESTCOTT CREEK @ MT DISAPPOINTMENT US SUNDAY CK STORAGE,WESTCOOT @ DISAPPOIN,0,ARB,9,55,334429.93599999999,5862841.665,MGA94,-37.366259999999997,145.13024999999999,WGS84,1,0,1,Y,N,1,1987-05-25,,405
405288,SUNDAY CREEK @ MT DISAPPOINTMENT (US SUNDAY CK. STORAGE,SUNDAY @ MT. DISAP.,0,ARB,20,55,334189.58600000001,5862051.0199999996,MGA94,-37.373339999999999,145.12736000000001,WGS84,1,0,1,Y,N,1,1987-05-25,,405
405290,PINE CREEK @ BROADFORD,PINE CK @ BROADFORD,0,AHD,3,55,327081,5871461,UTM,-37.287270579999998,145.04931210000001,WGS84,9,0,1,Y,N,1,1988-06-10,,405
405291,WHITEHEADS CREEK @ WHITEHEADS CREEK,WHITEHEADS CREEK,0,,51,55,340689,5900056,UTM,-37.032067689999998,145.20884219999999,WGS84,9,0,1,Y,N,1,1988-06-09,,405
405294,HONEYSUCKLE CREEK @ U/S OF VIOLET TOWN,H'SUCKLE U/S V.TOWN,0,,23,55,389293,5936324,UTM,-36.712194500000003,145.7604552,WGS84,9,0,1,Y,N,1,1989-04-28,,405
405297,WARRIGAL CREEK @ STEWARTS BRIDGE,WARRIGAL C @ STEWART,0,ARB,0,55,307199.5,6002100.9000000004,,-36.106499999999997,144.8580833,,1,0,1,N,Y,1,1991-03-01,,405
405306,SEVEN CREEKS @ STRATHBOGIE,SEVEN CKS STRATHBOGE,0,,0,55,387100,5919600,MGA94,-36.862699999999997,145.73339999999999,GDA94,1,0,1,Y,N,1,1997-07-09,,405
405307,SEVEN CREEKS @ GALLS GAP ROAD,SEVEN CKS GALLSGAP R,0,,0,55,376986,5917552.5999999996,MGA94,-36.879849999999998,145.61966000000001,GDA94,1,0,1,Y,N,1,1997-07-09,,405
405308,CASTLE CK @ TELFORD BRIDGE,CASTLE CK TELFORD BR,0,ARB,0,55,372464,5928121.2000000002,MGA94,-36.784134999999999,145.57069899999999,GDA94,1,0,1,Y,N,1,1997-07-09,,405
405310,GOULBURN RIVER @ GHIN GHIN,GOULBURN R GHIN GHIN,0,,0,55,355218,5883713,UTM,-37.181680739999997,145.36897529999999,WGS84,9,0,1,Y,N,1,2001-09-04,,405
405313,YEA RIVER @ YEA CARAVAN PARK,YEA R @ CARAVAN PK,,,,55,360874,5880377,UTM,-37.212600369999997,145.43204840000001,WGS84,9,0,1,N,Y,1,2000-10-11,,405
405315,GOULBURN RIVER @ MOOROOPNA WATT'S BRIDGE,GOULBURN R MOOROOPNA,,,,55,353249,5971060,UTM,-36.394289909999998,145.36362990000001,WGS84,9,0,1,N,Y,1,2005-07-18,,405
405321,DELATITE R @ SAWMILL SETTLEMENT,DELATITE R SAWMILL,0,ARB,58.200000000000003,55,443950,5893200,AMG66,-37.105699999999999,146.36920000000001,AGD66,1,0,1,N,N,1,2007-05-15,,405
405323,GOULBURN RIVER @ TAHBILK WINERY,GOULBURN @ TAHBILK,0,AHD,0,55,329178,5922783,UTM,-36.825286269999999,145.08461745,WGS84,9,135,9,Y,N,1,2008-06-17,,405
405327,NINE MILE CREEK U/S GVW DAM NEAR LONGWOOD,9 MILE C U/S GVW DAM,0,ARB,0,55,364067,5917665,UTM,-36.876883450000001,145.47467449999999,GDA94,,338,9,N,N,1,2009-11-12,,405
405328,STEAVENSON RIVER @ FALLS ROAD MARYSVILLE,STEAVENSON R @ FALLS,0,,0,55,391625,5846090,MGA94,-37.525797590000003,145.7735031,GDA94,9,0,,N,N,1,2009-11-17,,405
405329,GOULBURN RIVER @ KILLINGWORTH,GOULB @ KILLINGWORTH,0,,0,55,359908,5885762,UTM,-37.163933249999999,145.42217539999999,WGS84,,166,9,N,N,1,2009-12-09,,405
